{"type":"FeatureCollection","generated_at":"2026-04-23T05:57:50.544Z","region":"atlanta","bbox":[-84.65,33.55,-84.05,34],"category":"military","feature_count":8,"features":[{"type":"Feature","properties":{"id":"osm-node-7947152364","osm_type":"node","osm_id":7947152364,"category":"military","name":"Navy Career Center","operator":null,"ref":null,"tags":{"military":"office","name":"Navy Career Center"}},"geometry":{"type":"Point","coordinates":[-84.2688331,33.9869847]}},{"type":"Feature","properties":{"id":"osm-node-8960250120","osm_type":"node","osm_id":8960250120,"category":"military","name":"US Armed Forces Career Center","operator":null,"ref":null,"tags":{"military":"office","name":"US Armed Forces Career Center"}},"geometry":{"type":"Point","coordinates":[-84.3405396,33.5758196]}},{"type":"Feature","properties":{"id":"osm-node-9001603564","osm_type":"node","osm_id":9001603564,"category":"military","name":"U.S. Army Career Center","operator":null,"ref":null,"tags":{"military":"office","name":"U.S. Army Career Center","office":"military"}},"geometry":{"type":"Point","coordinates":[-84.2060794,33.8557858]}},{"type":"Feature","properties":{"id":"osm-node-9973596188","osm_type":"node","osm_id":9973596188,"category":"military","name":null,"operator":null,"ref":null,"tags":{"military":"checkpoint"}},"geometry":{"type":"Point","coordinates":[-84.522337,33.9271771]}},{"type":"Feature","properties":{"id":"osm-node-9973596189","osm_type":"node","osm_id":9973596189,"category":"military","name":null,"operator":null,"ref":null,"tags":{"military":"checkpoint"}},"geometry":{"type":"Point","coordinates":[-84.504305,33.9195651]}},{"type":"Feature","properties":{"id":"osm-node-9973596199","osm_type":"node","osm_id":9973596199,"category":"military","name":null,"operator":null,"ref":null,"tags":{"military":"checkpoint"}},"geometry":{"type":"Point","coordinates":[-84.5040811,33.919636]}},{"type":"Feature","properties":{"id":"osm-node-11978081875","osm_type":"node","osm_id":11978081875,"category":"military","name":"U.S. Army Corps of Engineers","operator":null,"ref":null,"tags":{"addr:city":"Atlanta","addr:housenumber":"60","addr:postcode":"30303-8801","addr:state":"GA","addr:street":"Forsyth Street","addr:unit":"9M15","alt_name":"U.S. Army Corps of Engineers - South Atlantic Division","landuse":"military","military":"office","military_service":"army","name":"U.S. Army Corps of Engineers","source":"USACE International Boundary Map","source_ref":"http://usace.maps.arcgis.com/apps/webappviewer/index.html?id=7344e62432694199af7790aa47a32fdd","website":"https://www.sad.usace.army.mil/"}},"geometry":{"type":"Point","coordinates":[-84.3925379,33.7536855]}},{"type":"Feature","properties":{"id":"osm-relation-4844952","osm_type":"relation","osm_id":4844952,"category":"military","name":"Dobbins Air Reserve Base","operator":null,"ref":null,"tags":{"addr:postcode":"30069","aeroway":"aerodrome","ele":"325.7","gnis:feature_id":"2443628","iata":"MGE","icao":"KMGE","landuse":"military","military":"airfield","name":"Dobbins Air Reserve Base","old_name:1941--1942-02-19":"Rickenbacker Field","old_name:1942-02-19--1950":"Marietta Army Airfield","old_name:1950--1992-06":"Dobbins Air Force Base","owner":"United States Air Force","ownership":"public_nonprofit","short_name":"Dobbins ARB","type":"multipolygon","website":"https://www.dobbins.afrc.af.mil/","wikidata":"Q1655754","wikimedia_commons":"Category:Dobbins Air Reserve Base","wikipedia":"en:Dobbins Air Reserve Base"}},"geometry":{"type":"Point","coordinates":[-84.518798,33.913965]}}]}