{"type":"FeatureCollection","generated_at":"2026-04-23T05:26:57.705Z","region":"chicago","bbox":[-88,41.6,-87.5,42.05],"category":"police","feature_count":51,"features":[{"type":"Feature","properties":{"id":"osm-node-368066600","osm_type":"node","osm_id":368066600,"category":"police","name":"La Grange Park Fire Station Number 1","operator":null,"ref":null,"tags":{"addr:city":"La Grange Park","addr:postcode":"60525","addr:state":"IL","addr:street":"Woodlawn Avenue","amenity":"fire_station","ele":"197","gnis:feature_id":"2100555","name":"La Grange Park Fire Station Number 1","source":"USGS Geonames"}},"geometry":{"type":"Point","coordinates":[-87.8729426,41.823004]}},{"type":"Feature","properties":{"id":"osm-node-368068695","osm_type":"node","osm_id":368068695,"category":"police","name":"La Grange Park Police Department","operator":null,"ref":null,"tags":{"addr:city":"La Grange Park","addr:housenumber":"447","addr:postcode":"60525","addr:state":"IL","addr:street":"Catherine Avenue","amenity":"police","ele":"197","emergency":"psap","gnis:feature_id":"2100554","name":"La Grange Park Police Department","source":"USGS Geonames"}},"geometry":{"type":"Point","coordinates":[-87.8734779,41.8229919]}},{"type":"Feature","properties":{"id":"osm-node-368074292","osm_type":"node","osm_id":368074292,"category":"police","name":"Rosemont Police Department","operator":null,"ref":null,"tags":{"addr:city":"Rosemont","addr:housenumber":"9501","addr:postcode":"60018","addr:state":"IL","addr:street":"Devon Avenue","amenity":"police","ele":"194","gnis:feature_id":"2035776","name":"Rosemont Police Department"}},"geometry":{"type":"Point","coordinates":[-87.8645085,41.995308]}},{"type":"Feature","properties":{"id":"osm-node-1589216626","osm_type":"node","osm_id":1589216626,"category":"police","name":"Wood Dale Police Department","operator":null,"ref":null,"tags":{"amenity":"police","name":"Wood Dale Police Department"}},"geometry":{"type":"Point","coordinates":[-87.9795446,41.9669121]}},{"type":"Feature","properties":{"id":"osm-node-1790771616","osm_type":"node","osm_id":1790771616,"category":"police","name":"Villa Park Police Department","operator":null,"ref":null,"tags":{"addr:city":"Villa Park","addr:state":"IL","amenity":"police","name":"Villa Park Police Department"}},"geometry":{"type":"Point","coordinates":[-87.9794811,41.8885236]}},{"type":"Feature","properties":{"id":"osm-node-2118197031","osm_type":"node","osm_id":2118197031,"category":"police","name":"Brookfield Police Department","operator":null,"ref":null,"tags":{"addr:city":"Brookfield","addr:housenumber":"8820","addr:postcode":"60513","addr:state":"IL","addr:street":"Brookfield Avenue","amenity":"police","name":"Brookfield Police Department"}},"geometry":{"type":"Point","coordinates":[-87.841031,41.8234357]}},{"type":"Feature","properties":{"id":"osm-node-2295224996","osm_type":"node","osm_id":2295224996,"category":"police","name":"Northwestern University Police Department","operator":null,"ref":null,"tags":{"addr:city":"Evanston","addr:housenumber":"1201","addr:postcode":"60201","addr:state":"IL","addr:street":"Davis Street","addr:street:name":"Davis","addr:street:type":"Street","amenity":"police","name":"Northwestern University Police Department"}},"geometry":{"type":"Point","coordinates":[-87.6892883,42.047594]}},{"type":"Feature","properties":{"id":"osm-node-2401067902","osm_type":"node","osm_id":2401067902,"category":"police","name":"Berkeley Police Department","operator":null,"ref":null,"tags":{"addr:city":"Berkeley","addr:postcode":"60163","addr:state":"IL","addr:street":"Electric Avenue","amenity":"police","name":"Berkeley Police Department"}},"geometry":{"type":"Point","coordinates":[-87.9139675,41.8819385]}},{"type":"Feature","properties":{"id":"osm-node-3358852397","osm_type":"node","osm_id":3358852397,"category":"police","name":"Forest Park Police Department","operator":"Village of Forest Park","ref":null,"tags":{"addr:city":"Forest Park","addr:housenumber":"517","addr:postcode":"60130","addr:state":"IL","addr:street":"Des Plaines Avenue","amenity":"police","name":"Forest Park Police Department","operator":"Village of Forest Park"}},"geometry":{"type":"Point","coordinates":[-87.8149187,41.8770915]}},{"type":"Feature","properties":{"id":"osm-node-3549337313","osm_type":"node","osm_id":3549337313,"category":"police","name":"Oak Park Police Department","operator":null,"ref":null,"tags":{"addr:city":"Oak Park","addr:housenumber":"123","addr:postcode":"60302","addr:state":"IL","addr:street":"Madison Street","amenity":"police","name":"Oak Park Police Department"}},"geometry":{"type":"Point","coordinates":[-87.7788958,41.8793127]}},{"type":"Feature","properties":{"id":"osm-node-3785765784","osm_type":"node","osm_id":3785765784,"category":"police","name":"Harwood Heights Police Department","operator":null,"ref":null,"tags":{"addr:city":"Harwood Heights","addr:housenumber":"7300","addr:postcode":"60706","addr:state":"IL","addr:street":"West Wilson Avenue","amenity":"police","name":"Harwood Heights Police Department","opening_hours":"24/7"}},"geometry":{"type":"Point","coordinates":[-87.8096906,41.9645851]}},{"type":"Feature","properties":{"id":"osm-node-3785790488","osm_type":"node","osm_id":3785790488,"category":"police","name":"Park Ridge Police Department","operator":null,"ref":null,"tags":{"addr:city":"Park Ridge","addr:housenumber":"200","addr:postcode":"60068","addr:state":"IL","addr:street":"Vine Avenue","amenity":"police","name":"Park Ridge Police Department","website":"https://www.parkridge.us/police/"}},"geometry":{"type":"Point","coordinates":[-87.8304415,42.0080345]}},{"type":"Feature","properties":{"id":"osm-node-3897541357","osm_type":"node","osm_id":3897541357,"category":"police","name":"Lemont Police Department","operator":null,"ref":null,"tags":{"addr:city":"Lemont","addr:country":"US","addr:housenumber":"14600","addr:postcode":"60439","addr:state":"IL","addr:street":"127th Street","amenity":"police","name":"Lemont Police Department"}},"geometry":{"type":"Point","coordinates":[-87.975876,41.65677]}},{"type":"Feature","properties":{"id":"osm-node-4207766239","osm_type":"node","osm_id":4207766239,"category":"police","name":"Schiller Park Fire Department","operator":null,"ref":null,"tags":{"addr:city":"Schiller Park","addr:housenumber":"9526","addr:postcode":"60176","addr:state":"IL","addr:street":"Irving Park Road","amenity":"fire_station","name":"Schiller Park Fire Department"}},"geometry":{"type":"Point","coordinates":[-87.8647819,41.9549204]}},{"type":"Feature","properties":{"id":"osm-node-4319249620","osm_type":"node","osm_id":4319249620,"category":"police","name":"Schiller Park Police Department","operator":null,"ref":null,"tags":{"addr:city":"Schiller Park","addr:housenumber":"9526","addr:postcode":"60176","addr:state":"IL","addr:street":"Irving Park Road","amenity":"police","name":"Schiller Park Police Department"}},"geometry":{"type":"Point","coordinates":[-87.864876,41.9552118]}},{"type":"Feature","properties":{"id":"osm-node-4319301790","osm_type":"node","osm_id":4319301790,"category":"police","name":"River Grove Police Department","operator":null,"ref":null,"tags":{"addr:city":"River Grove","addr:housenumber":"2621","addr:postcode":"60171","addr:state":"IL","addr:street":"North Thatcher Avenue","amenity":"police","name":"River Grove Police Department"}},"geometry":{"type":"Point","coordinates":[-87.8353775,41.9274671]}},{"type":"Feature","properties":{"id":"osm-node-4338020899","osm_type":"node","osm_id":4338020899,"category":"police","name":"Chicago Ridge Police Department","operator":null,"ref":null,"tags":{"addr:city":"Chicago Ridge","addr:housenumber":"10425","addr:postcode":"60415","addr:state":"IL","addr:street":"South Ridgeland Avenue","amenity":"police","name":"Chicago Ridge Police Department"}},"geometry":{"type":"Point","coordinates":[-87.7785416,41.7022123]}},{"type":"Feature","properties":{"id":"osm-node-4403689586","osm_type":"node","osm_id":4403689586,"category":"police","name":"South Holland Fire Department","operator":"South Holland Fire Department","ref":null,"tags":{"addr:city":"South Holland","addr:housenumber":"16230","addr:postcode":"60473","addr:state":"IL","addr:street":"Wassau Avenue","amenity":"fire_station","name":"South Holland Fire Department","operator":"South Holland Fire Department","website":"https://www.southholland.org/departments/fire-department/"}},"geometry":{"type":"Point","coordinates":[-87.6106241,41.6000642]}},{"type":"Feature","properties":{"id":"osm-node-4403706601","osm_type":"node","osm_id":4403706601,"category":"police","name":"Calumet Park Police Department","operator":null,"ref":null,"tags":{"addr:city":"Calumet Park","addr:housenumber":"12409","addr:postcode":"60827","addr:state":"IL","addr:street":"Throop Street","amenity":"police","name":"Calumet Park Police Department"}},"geometry":{"type":"Point","coordinates":[-87.6535187,41.668021]}},{"type":"Feature","properties":{"id":"osm-node-4781854391","osm_type":"node","osm_id":4781854391,"category":"police","name":"Riverdale Police Department","operator":null,"ref":null,"tags":{"addr:city":"Riverdale","addr:housenumber":"725","addr:postcode":"60827","addr:state":"IL","addr:street":"West 138th Street","amenity":"police","name":"Riverdale Police Department"}},"geometry":{"type":"Point","coordinates":[-87.6397689,41.6458551]}},{"type":"Feature","properties":{"id":"osm-node-4781854392","osm_type":"node","osm_id":4781854392,"category":"police","name":"Riverdale Fire Department","operator":null,"ref":null,"tags":{"addr:city":"Riverdale","addr:housenumber":"725","addr:postcode":"60827","addr:state":"IL","addr:street":"West 138th Street","amenity":"fire_station","name":"Riverdale Fire Department"}},"geometry":{"type":"Point","coordinates":[-87.64016,41.6458431]}},{"type":"Feature","properties":{"id":"osm-node-5125768345","osm_type":"node","osm_id":5125768345,"category":"police","name":"Phoenix Police Department","operator":null,"ref":null,"tags":{"addr:city":"Phoenix","addr:housenumber":"629","addr:postcode":"60426","addr:state":"IL","addr:street":"East 151st Street","amenity":"police","name":"Phoenix Police Department"}},"geometry":{"type":"Point","coordinates":[-87.6320098,41.6151557]}},{"type":"Feature","properties":{"id":"osm-node-5243129567","osm_type":"node","osm_id":5243129567,"category":"police","name":"University of Chicago Police Department","operator":null,"ref":null,"tags":{"addr:city":"Chicago","addr:housenumber":"850","addr:postcode":"60637","addr:state":"IL","addr:street":"East 61st Street","amenity":"police","name":"University of Chicago Police Department","website":"https://safety-security.uchicago.edu/police/"}},"geometry":{"type":"Point","coordinates":[-87.6047199,41.7842623]}},{"type":"Feature","properties":{"id":"osm-node-5290224147","osm_type":"node","osm_id":5290224147,"category":"police","name":"Hillside Police Department","operator":null,"ref":null,"tags":{"addr:city":"Hillside","addr:housenumber":"425","addr:postcode":"60162","addr:state":"IL","addr:street":"Hillside Avenue","amenity":"police","name":"Hillside Police Department"}},"geometry":{"type":"Point","coordinates":[-87.9072954,41.877721]}},{"type":"Feature","properties":{"id":"osm-node-5350040247","osm_type":"node","osm_id":5350040247,"category":"police","name":"Bedford Park Police Department","operator":null,"ref":null,"tags":{"addr:city":"Bedford Park","addr:housenumber":"6701","addr:postcode":"60501","addr:state":"IL","addr:street":"South Archer Avenue","amenity":"police","name":"Bedford Park Police Department"}},"geometry":{"type":"Point","coordinates":[-87.8180547,41.7700824]}},{"type":"Feature","properties":{"id":"osm-node-5810736588","osm_type":"node","osm_id":5810736588,"category":"police","name":"Burnham Police Department","operator":null,"ref":null,"tags":{"addr:city":"Burnham","addr:housenumber":"14450","addr:postcode":"60633","addr:state":"IL","addr:street":"South Manistee Avenue","amenity":"police","name":"Burnham Police Department","website":"http://villageofburnham.com/village-departments/police-department/"}},"geometry":{"type":"Point","coordinates":[-87.55598,41.6322592]}},{"type":"Feature","properties":{"id":"osm-node-6089114509","osm_type":"node","osm_id":6089114509,"category":"police","name":"Bridgeview Police Department","operator":null,"ref":null,"tags":{"addr:city":"Bridgeview","addr:housenumber":"7500","addr:postcode":"60455","addr:state":"IL","addr:street":"South Oketo Avenue","amenity":"police","name":"Bridgeview Police Department","opening_hours":"24/7"}},"geometry":{"type":"Point","coordinates":[-87.8051771,41.7550033]}},{"type":"Feature","properties":{"id":"osm-node-6487340584","osm_type":"node","osm_id":6487340584,"category":"police","name":"Moraine Valley Community College Police Department","operator":null,"ref":null,"tags":{"amenity":"police","name":"Moraine Valley Community College Police Department"}},"geometry":{"type":"Point","coordinates":[-87.841477,41.692338]}},{"type":"Feature","properties":{"id":"osm-node-6630302939","osm_type":"node","osm_id":6630302939,"category":"police","name":"Lyons Police Department","operator":null,"ref":null,"tags":{"addr:city":"Lyons","addr:housenumber":"4200","addr:postcode":"60534","addr:state":"IL","addr:street":"Lawndale Avenue","amenity":"police","name":"Lyons Police Department"}},"geometry":{"type":"Point","coordinates":[-87.8265716,41.8138226]}},{"type":"Feature","properties":{"id":"osm-node-7143811009","osm_type":"node","osm_id":7143811009,"category":"police","name":"River Forest Police Department","operator":null,"ref":null,"tags":{"addr:city":"River Forest","addr:housenumber":"400","addr:postcode":"60305","addr:state":"IL","addr:street":"Park Avenue","amenity":"police","name":"River Forest Police Department"}},"geometry":{"type":"Point","coordinates":[-87.8201531,41.8876404]}},{"type":"Feature","properties":{"id":"osm-node-7143811010","osm_type":"node","osm_id":7143811010,"category":"police","name":"River Forest Fire Department","operator":null,"ref":null,"tags":{"addr:city":"River Forest","addr:housenumber":"400","addr:postcode":"60305","addr:state":"IL","addr:street":"Park Avenue","amenity":"fire_station","name":"River Forest Fire Department"}},"geometry":{"type":"Point","coordinates":[-87.8199037,41.8873349]}},{"type":"Feature","properties":{"id":"osm-node-7161555897","osm_type":"node","osm_id":7161555897,"category":"police","name":"Alsip Police Department","operator":null,"ref":null,"tags":{"addr:city":"Alsip","addr:housenumber":"4500","addr:postcode":"60803","addr:state":"IL","addr:street":"West 123rd Street","amenity":"police","name":"Alsip Police Department"}},"geometry":{"type":"Point","coordinates":[-87.7317547,41.6696735]}},{"type":"Feature","properties":{"id":"osm-node-7210820784","osm_type":"node","osm_id":7210820784,"category":"police","name":"Metra Police Department","operator":null,"ref":null,"tags":{"addr:city":"Chicago","addr:housenumber":"414","addr:postcode":"60605","addr:state":"IL","addr:street":"South LaSalle Street","amenity":"police","level":"1","name":"Metra Police Department","wikidata":"Q6824294","wikipedia":"en:Metra Police Department"}},"geometry":{"type":"Point","coordinates":[-87.6323871,41.875456]}},{"type":"Feature","properties":{"id":"osm-node-7246694474","osm_type":"node","osm_id":7246694474,"category":"police","name":"Hometown Police Department","operator":null,"ref":null,"tags":{"addr:city":"Hometown","addr:housenumber":"4331","addr:postcode":"60456","addr:state":"IL","addr:street":"Southwest Highway","amenity":"police","name":"Hometown Police Department"}},"geometry":{"type":"Point","coordinates":[-87.7301335,41.7283835]}},{"type":"Feature","properties":{"id":"osm-node-7262555848","osm_type":"node","osm_id":7262555848,"category":"police","name":"Forest View Police Department","operator":null,"ref":null,"tags":{"addr:city":"Forest View","addr:housenumber":"7000","addr:postcode":"60402","addr:state":"IL","addr:street":"46th Street","amenity":"police","name":"Forest View Police Department"}},"geometry":{"type":"Point","coordinates":[-87.7975612,41.8088619]}},{"type":"Feature","properties":{"id":"osm-node-7262555849","osm_type":"node","osm_id":7262555849,"category":"police","name":"Forest View Fire Department","operator":null,"ref":null,"tags":{"addr:city":"Forest View","addr:housenumber":"7000","addr:postcode":"60402","addr:state":"IL","addr:street":"46th Street","amenity":"fire_station","name":"Forest View Fire Department"}},"geometry":{"type":"Point","coordinates":[-87.7979528,41.8088479]}},{"type":"Feature","properties":{"id":"osm-node-9365466211","osm_type":"node","osm_id":9365466211,"category":"police","name":"Elmwood Park Fire Department Station #2","operator":"Elmwood Park Fire Department","ref":null,"tags":{"addr:city":"Elmwood Park","addr:housenumber":"7420","addr:postcode":"60707","addr:state":"IL","addr:street":"West Fullerton Avenue","amenity":"fire_station","gnis:feature_id":"2682285","name":"Elmwood Park Fire Department Station #2","operator":"Elmwood Park Fire Department","source":"United States Geological Survey"}},"geometry":{"type":"Point","coordinates":[-87.8122565,41.9236361]}},{"type":"Feature","properties":{"id":"osm-node-9603257760","osm_type":"node","osm_id":9603257760,"category":"police","name":"Western Springs Police Department","operator":null,"ref":null,"tags":{"addr:city":"Western Springs","addr:housenumber":"740","addr:postcode":"60558","addr:state":"IL","addr:street":"Hillgrove Avenue","amenity":"police","name":"Western Springs Police Department"}},"geometry":{"type":"Point","coordinates":[-87.8982753,41.8102471]}},{"type":"Feature","properties":{"id":"osm-node-9658051821","osm_type":"node","osm_id":9658051821,"category":"police","name":"Oak Lawn Police Department","operator":null,"ref":null,"tags":{"addr:city":"Oak Lawn","addr:housenumber":"9446","addr:postcode":"60453","addr:state":"IL","addr:street":"Raymond Avenue","amenity":"police","name":"Oak Lawn Police Department"}},"geometry":{"type":"Point","coordinates":[-87.7532147,41.7206156]}},{"type":"Feature","properties":{"id":"osm-node-9658051822","osm_type":"node","osm_id":9658051822,"category":"police","name":"Oak Lawn Fire Department Station #3","operator":"Oak Lawn Fire Department","ref":null,"tags":{"addr:city":"Oak Lawn","addr:housenumber":"9446","addr:postcode":"60453","addr:state":"IL","addr:street":"Raymond Avenue","amenity":"fire_station","name":"Oak Lawn Fire Department Station #3","operator":"Oak Lawn Fire Department"}},"geometry":{"type":"Point","coordinates":[-87.7538262,41.7206016]}},{"type":"Feature","properties":{"id":"osm-node-10233568510","osm_type":"node","osm_id":10233568510,"category":"police","name":"Cook County Sheriff's Police Substation","operator":"Cook County Sheriff's Office","ref":null,"tags":{"addr:city":"Chicago","addr:housenumber":"5246","addr:postcode":"60651","addr:state":"IL","addr:street":"West Chicago Avenue","amenity":"police","name":"Cook County Sheriff's Police Substation","operator":"Cook County Sheriff's Office","wikidata":"Q5166909","wikipedia":"en:Cook County Sheriff's Office"}},"geometry":{"type":"Point","coordinates":[-87.7574475,41.8950734]}},{"type":"Feature","properties":{"id":"osm-node-10815801757","osm_type":"node","osm_id":10815801757,"category":"police","name":"Bridgeview Fire Department Station 1","operator":"Bridgeview Fire Department","ref":null,"tags":{"addr:city":"Bridgeview","addr:housenumber":"7500","addr:postcode":"60455","addr:state":"IL","addr:street":"South Oketo Avenue","amenity":"fire_station","name":"Bridgeview Fire Department Station 1","operator":"Bridgeview Fire Department","website":"http://www.bridgeview-il.gov/residents/fire_department/"}},"geometry":{"type":"Point","coordinates":[-87.8054178,41.7549989]}},{"type":"Feature","properties":{"id":"osm-node-10873822336","osm_type":"node","osm_id":10873822336,"category":"police","name":"U.S. Postal Inspection Service","operator":"United States Postal Inspection Service","ref":null,"tags":{"addr:city":"Chicago","addr:housenumber":"433","addr:postcode":"60607","addr:state":"IL","addr:street":"West Harrison Street","amenity":"police","name":"U.S. Postal Inspection Service","operator":"United States Postal Inspection Service","wikidata":"Q2495411","wikipedia":"en:United States Postal Inspection Service"}},"geometry":{"type":"Point","coordinates":[-87.6373635,41.8737524]}},{"type":"Feature","properties":{"id":"osm-node-11033599893","osm_type":"node","osm_id":11033599893,"category":"police","name":"Chicago State University Police Department","operator":null,"ref":null,"tags":{"addr:city":"Chicago","addr:postcode":"60628","addr:state":"IL","addr:street":"CSU Drive","amenity":"police","name":"Chicago State University Police Department","website":"https://www.csu.edu/dosa/resources/csupolice/index.htm"}},"geometry":{"type":"Point","coordinates":[-87.6071878,41.7168504]}},{"type":"Feature","properties":{"id":"osm-node-11335080464","osm_type":"node","osm_id":11335080464,"category":"police","name":"Bellwood Fire Department","operator":null,"ref":null,"tags":{"addr:city":"Bellwood","addr:housenumber":"3200","addr:postcode":"60104","addr:state":"IL","addr:street":"Washington Boulevard","amenity":"fire_station","name":"Bellwood Fire Department"}},"geometry":{"type":"Point","coordinates":[-87.8728895,41.8814272]}},{"type":"Feature","properties":{"id":"osm-node-11335080465","osm_type":"node","osm_id":11335080465,"category":"police","name":"Bellwood Police Department","operator":null,"ref":null,"tags":{"addr:city":"Bellwood","addr:housenumber":"3200","addr:postcode":"60104","addr:state":"IL","addr:street":"Washington Boulevard","amenity":"police","name":"Bellwood Police Department"}},"geometry":{"type":"Point","coordinates":[-87.8721867,41.8812275]}},{"type":"Feature","properties":{"id":"osm-node-11461354890","osm_type":"node","osm_id":11461354890,"category":"police","name":"Countryside Police Department","operator":null,"ref":null,"tags":{"addr:city":"Countryside","addr:postcode":"60525","addr:state":"IL","addr:street":"South Brainard Avenue","amenity":"police","name":"Countryside Police Department"}},"geometry":{"type":"Point","coordinates":[-87.8785758,41.7747702]}},{"type":"Feature","properties":{"id":"osm-node-12001509253","osm_type":"node","osm_id":12001509253,"category":"police","name":"Chicago Police Department","operator":"Chicago Police Department","ref":null,"tags":{"amenity":"police","check_date":"2024-06-22","name":"Chicago Police Department","operator":"Chicago Police Department","operator:wikidata":"Q1340186"}},"geometry":{"type":"Point","coordinates":[-87.7419422,41.7889676]}},{"type":"Feature","properties":{"id":"osm-node-12121314708","osm_type":"node","osm_id":12121314708,"category":"police","name":"DOA Communications Service Center","operator":"Chicago Police Department","ref":null,"tags":{"amenity":"police","name":"DOA Communications Service Center","operator":"Chicago Police Department","operator:wikidata":"Q1340186"}},"geometry":{"type":"Point","coordinates":[-87.9186944,42.0006389]}},{"type":"Feature","properties":{"id":"osm-node-12345137583","osm_type":"node","osm_id":12345137583,"category":"police","name":"VA Police","operator":null,"ref":null,"tags":{"amenity":"police","name":"VA Police"}},"geometry":{"type":"Point","coordinates":[-87.8424456,41.8582451]}},{"type":"Feature","properties":{"id":"osm-node-13019363309","osm_type":"node","osm_id":13019363309,"category":"police","name":"Illinois Conservation Police","operator":"Illinois Department of Natural Resources","ref":null,"tags":{"addr:city":"Chicago","addr:housenumber":"250","addr:postcode":"60601","addr:state":"IL","addr:street":"North Breakwater Access","amenity":"police","government":"yes","name":"Illinois Conservation Police","operator":"Illinois Department of Natural Resources"}},"geometry":{"type":"Point","coordinates":[-87.6102107,41.8875129]}}]}