{"type":"FeatureCollection","generated_at":"2026-04-23T05:59:54.630Z","region":"dallas","bbox":[-97.5,32.55,-96.55,33.1],"category":"am-fm-antennas","feature_count":8,"features":[{"type":"Feature","properties":{"id":"osm-node-356754605","osm_type":"node","osm_id":356754605,"category":"am-fm-antennas","name":"KUII-AM (Dallas)","operator":null,"ref":null,"tags":{"communication:radio":"yes","gnis:feature_id":"1385540","man_made":"antenna","name":"KUII-AM (Dallas)"}},"geometry":{"type":"Point","coordinates":[-96.9521851,32.7854493]}},{"type":"Feature","properties":{"id":"osm-node-356754608","osm_type":"node","osm_id":356754608,"category":"am-fm-antennas","name":"KGGR-AM (Dallas)","operator":null,"ref":null,"tags":{"communication:radio":"yes","gnis:feature_id":"1385541","man_made":"antenna","name":"KGGR-AM (Dallas)"}},"geometry":{"type":"Point","coordinates":[-96.7309646,32.7788868]}},{"type":"Feature","properties":{"id":"osm-node-356754693","osm_type":"node","osm_id":356754693,"category":"am-fm-antennas","name":"KKDA-AM (Grand Prairie)","operator":null,"ref":null,"tags":{"communication:radio":"yes","gnis:feature_id":"1385574","man_made":"antenna","name":"KKDA-AM (Grand Prairie)"}},"geometry":{"type":"Point","coordinates":[-96.9904983,32.764363]}},{"type":"Feature","properties":{"id":"osm-node-5747509479","osm_type":"node","osm_id":5747509479,"category":"am-fm-antennas","name":"KAAM-AM (Dallas)","operator":null,"ref":null,"tags":{"communication:radio":"yes","gnis:feature_id":"1387829","man_made":"antenna","name":"KAAM-AM (Dallas)"}},"geometry":{"type":"Point","coordinates":[-96.9404178,32.9444879]}},{"type":"Feature","properties":{"id":"osm-node-10743656839","osm_type":"node","osm_id":10743656839,"category":"am-fm-antennas","name":null,"operator":null,"ref":null,"tags":{"communication:satellite":"yes","man_made":"antenna"}},"geometry":{"type":"Point","coordinates":[-97.3448339,32.7144006]}},{"type":"Feature","properties":{"id":"osm-node-11933820316","osm_type":"node","osm_id":11933820316,"category":"am-fm-antennas","name":"Verizon","operator":"Verizon","ref":null,"tags":{"man_made":"antenna","note":"This is an access point to an area with transmitting antennas.","operator":"Verizon"}},"geometry":{"type":"Point","coordinates":[-97.0542068,33.0140096]}},{"type":"Feature","properties":{"id":"osm-node-12030489694","osm_type":"node","osm_id":12030489694,"category":"am-fm-antennas","name":null,"operator":null,"ref":null,"tags":{"man_made":"antenna"}},"geometry":{"type":"Point","coordinates":[-97.1911859,32.8499992]}},{"type":"Feature","properties":{"id":"osm-node-13048471976","osm_type":"node","osm_id":13048471976,"category":"am-fm-antennas","name":null,"operator":null,"ref":null,"tags":{"man_made":"antenna"}},"geometry":{"type":"Point","coordinates":[-97.4118871,32.6087823]}}]}