{"type":"FeatureCollection","generatedAt":"2026-04-19T23:52:28.392Z","sources":{"osm":0,"peeringdb":4528,"mindex":0,"merged":4156},"features":[{"type":"Feature","properties":{"id":"peeringdb-1","n":"Equinix DC1-DC15,DC21-DC22 - Ashburn","op":"Equinix, Inc.","address":"21715 Filigree Ct","city":"Ashburn","country":"US","clli":"ASBNVA","tier":null,"src":"peeringdb"},"geometry":{"type":"Point","coordinates":[-77.459023,39.016363]}},{"type":"Feature","properties":{"id":"peeringdb-2","n":"Digital Realty SFO (200 Paul)","op":"Digital Realty","address":"200 Paul Ave","city":"San Francisco","country":"US","clli":"SNFCCA","tier":null,"src":"peeringdb"},"geometry":{"type":"Point","coordinates":[-122.397923,37.723407]}},{"type":"Feature","properties":{"id":"peeringdb-4","n":"Equinix DA1 - Dallas","op":"Equinix, Inc.","address":"1950 N Stemmons Fwy","city":"Dallas","country":"US","clli":"DLLSTX","tier":null,"src":"peeringdb"},"geometry":{"type":"Point","coordinates":[-96.81955,32.800955]}},{"type":"Feature","properties":{"id":"peeringdb-5","n":"Equinix SV8 - Silicon Valley, Palo Alto","op":"Equinix, Inc.","address":"529 Bryant St","city":"Palo Alto","country":"US","clli":"PLALCA","tier":null,"src":"peeringdb"},"geometry":{"type":"Point","coordinates":[-122.160775,37.445896]}},{"type":"Feature","properties":{"id":"peeringdb-6","n":"Equinix SV1/SV5/SV10 - Silicon Valley, San Jose","op":"Equinix, Inc.","address":"11 Great Oaks Blvd","city":"San Jose","country":"US","clli":"SNJSCA","tier":null,"src":"peeringdb"},"geometry":{"type":"Point","coordinates":[-121.782967,37.241767]}},{"type":"Feature","properties":{"id":"peeringdb-7","n":"Equinix CH1/CH2/CH4 - Chicago","op":"Equinix, Inc.","address":"350 E Cermak Rd","city":"Chicago","country":"US","clli":"CHCGIL","tier":null,"src":"peeringdb"},"geometry":{"type":"Point","coordinates":[-87.618342,41.85365]}},{"type":"Feature","properties":{"id":"peeringdb-8","n":"Equinix LA1 - Los Angeles","op":"Equinix, Inc.","address":"600 W 7th St","city":"Los Angeles","country":"US","clli":"LSANCA","tier":null,"src":"peeringdb"},"geometry":{"type":"Point","coordinates":[-118.2573,34.047501]}},{"type":"Feature","properties":{"id":"peeringdb-9","n":"Equinix NY1 - New York, Newark","op":"Equinix, Inc.","address":"165 Halsey St","city":"Newark","country":"US","clli":"NWRKNJ","tier":null,"src":"peeringdb"},"geometry":{"type":"Point","coordinates":[-74.173402,40.736844]}},{"type":"Feature","properties":{"id":"peeringdb-10","n":"Digital Realty NYC (60 Hudson)","op":"Digital Realty","address":"60 Hudson St","city":"New York","country":"US","clli":"NYCMNY","tier":null,"src":"peeringdb"},"geometry":{"type":"Point","coordinates":[-74.008299,40.717723]}},{"type":"Feature","properties":{"id":"peeringdb-11","n":"Equinix AT2/AT3 - Atlanta","op":"Equinix, Inc.","address":"56 Marietta St NW","city":"Atlanta","country":"US","clli":"ATLNGA","tier":null,"src":"peeringdb"},"geometry":{"type":"Point","coordinates":[-84.39153,33.755456]}},{"type":"Feature","properties":{"id":"peeringdb-12","n":"Equinix TR1 - Toronto","op":"Equinix, Inc.","address":"151 Front St","city":"Toronto","country":"CA","clli":"TOROON","tier":null,"src":"peeringdb"},"geometry":{"type":"Point","coordinates":[-79.384128,43.644672]}},{"type":"Feature","properties":{"id":"peeringdb-15","n":"Equinix MI1 - Miami, NOTA","op":"Equinix, Inc.","address":"50 NE 9th St","city":"Miami","country":"US","clli":"MIAUFL","tier":null,"src":"peeringdb"},"geometry":{"type":"Point","coordinates":[-80.193157,25.782648]}},{"type":"Feature","properties":{"id":"peeringdb-16","n":"Digital Realty NYC (111 8th Ave)","op":"Digital Realty","address":"111 8th Ave","city":"New York","country":"US","clli":"NYCMNY","tier":null,"src":"peeringdb"},"geometry":{"type":"Point","coordinates":[-74.003387,40.741469]}},{"type":"Feature","properties":{"id":"peeringdb-18","n":"NIKHEF Amsterdam","op":"Nikhef","address":"Science Park 105","city":"Amsterdam","country":"NL","clli":"AMSTNL","tier":null,"src":"peeringdb"},"geometry":{"type":"Point","coordinates":[4.950837,52.356394]}},{"type":"Feature","properties":{"id":"peeringdb-19","n":"CoreSite - Los Angeles (LA1) One Wilshire","op":"CoreSite","address":"624 S. Grand Ave.","city":"Los Angeles","country":"US","clli":"LSANCARC","tier":null,"src":"peeringdb"},"geometry":{"type":"Point","coordinates":[-118.255564,34.047942]}},{"type":"Feature","properties":{"id":"peeringdb-20","n":"CoreSite - San Jose (SV1)","op":"CoreSite","address":"55 S. Market Street","city":"San Jose","country":"US","clli":"SNJSCAJN","tier":null,"src":"peeringdb"},"geometry":{"type":"Point","coordinates":[-121.891649,37.334147]}},{"type":"Feature","properties":{"id":"peeringdb-21","n":"FedConnect San Francisco","op":"60 Fed LLC","address":"60 Federal Street","city":"San Francisco","country":"US","clli":"SNFCCA","tier":null,"src":"peeringdb"},"geometry":{"type":"Point","coordinates":[-122.392048,37.783322]}},{"type":"Feature","properties":{"id":"peeringdb-22","n":"JMA NAC Los Angeles","op":"JMA Wired","address":"530 West 6th Street","city":"Los Angeles","country":"US","clli":"LSANCA","tier":null,"src":"peeringdb"},"geometry":{"type":"Point","coordinates":[-118.255186,34.048428]}},{"type":"Feature","properties":{"id":"peeringdb-23","n":"Digital Realty SFO (365 Main)","op":"Digital Realty","address":"365 Main Street","city":"San Francisco","country":"US","clli":"SNFCCA","tier":null,"src":"peeringdb"},"geometry":{"type":"Point","coordinates":[-122.390509,37.788669]}},{"type":"Feature","properties":{"id":"peeringdb-24","n":"The Mission Street Center","op":"UnitedLayer LLC","address":"1019 Mission Street","city":"San Francisco","country":"US","clli":"SNFCCA","tier":null,"src":"peeringdb"},"geometry":{"type":"Point","coordinates":[-122.408954,37.780351]}},{"type":"Feature","properties":{"id":"peeringdb-33","n":"SVTIX San Jose","op":"SVTIX San Jose","address":"250 Stockton St","city":"San Jose","country":"US","clli":"SNJSCA","tier":null,"src":"peeringdb"},"geometry":{"type":"Point","coordinates":[-121.904828,37.333765]}},{"type":"Feature","properties":{"id":"peeringdb-35","n":"Digital Realty London LHR17","op":"Digital Realty","address":"Unit 1","city":"West Drayton","country":"GB","clli":null,"tier":null,"src":"peeringdb"},"geometry":{"type":"Point","coordinates":[-0.460224,51.482248]}},{"type":"Feature","properties":{"id":"peeringdb-36","n":"Equinix NY2/NY4/NY5/NY6 - New York, Secaucus","op":"Equinix, Inc.","address":"800 Secaucus Road","city":"Secaucus","country":"US","clli":"SCCSNJ","tier":null,"src":"peeringdb"},"geometry":{"type":"Point","coordinates":[-74.072237,40.778534]}},{"type":"Feature","properties":{"id":"peeringdb-40","n":"Digital Realty London LHR20","op":"Digital Realty","address":"Sovereign House","city":"London","country":"GB","clli":"LONDEN","tier":null,"src":"peeringdb"},"geometry":{"type":"Point","coordinates":[-0.010775,51.499819]}},{"type":"Feature","properties":{"id":"peeringdb-43","n":"Digital Realty London LHR19","op":"Digital Realty","address":"Cloud House","city":"London","country":"GB","clli":"LONDEN","tier":null,"src":"peeringdb"},"geometry":{"type":"Point","coordinates":[-0.018933,51.496902]}},{"type":"Feature","properties":{"id":"peeringdb-45","n":"Equinix LD8 - London, Docklands","op":"Equinix, Inc.","address":"6-9 Harbour Exchange Square","city":"London","country":"GB","clli":"LONDEN","tier":null,"src":"peeringdb"},"geometry":{"type":"Point","coordinates":[-0.014327,51.498842]}},{"type":"Feature","properties":{"id":"peeringdb-46","n":"Digital Realty London LON1-3","op":"Digital Realty","address":"11 Hanbury Street","city":"London","country":"GB","clli":"LONDEN","tier":null,"src":"peeringdb"},"geometry":{"type":"Point","coordinates":[-0.073777,51.520397]}},{"type":"Feature","properties":{"id":"peeringdb-47","n":"Global Switch London East","op":"Global Switch","address":"3 Nutmeg Lane","city":"London","country":"GB","clli":null,"tier":null,"src":"peeringdb"},"geometry":{"type":"Point","coordinates":[-0.003494,51.510985]}},{"type":"Feature","properties":{"id":"peeringdb-48","n":"Global Switch London North","op":"Global Switch","address":"240 East India Dock Road","city":"London","country":"GB","clli":"LONDEN","tier":null,"src":"peeringdb"},"geometry":{"type":"Point","coordinates":[-0.010634,51.511364]}},{"type":"Feature","properties":{"id":"peeringdb-52","n":"UltraEdge Velizy","op":"UltraEdge","address":"6 Rue Nieuport","city":"Paris","country":"FR","clli":null,"tier":null,"src":"peeringdb"},"geometry":{"type":"Point","coordinates":[2.208747,48.782499]}},{"type":"Feature","properties":{"id":"peeringdb-53","n":"Telehouse - Paris 2 (Voltaire - Léon Frot)","op":"Telehouse - Global Data Centers","address":"137 Boulevard Voltaire","city":"Paris","country":"FR","clli":"PARSFR","tier":null,"src":"peeringdb"},"geometry":{"type":"Point","coordinates":[2.38532,48.856654]}},{"type":"Feature","properties":{"id":"peeringdb-54","n":"Telehouse - Paris 1 (Jeûneurs)","op":"Telehouse - Global Data Centers","address":"38, rue des Jeûneurs","city":"Paris","country":"FR","clli":"PARSFR","tier":null,"src":"peeringdb"},"geometry":{"type":"Point","coordinates":[2.344236,48.869869]}},{"type":"Feature","properties":{"id":"peeringdb-55","n":"UltraEdge Paris - Courbevoie","op":"UltraEdge","address":"124 Boulevard de Verdun","city":"Paris","country":"FR","clli":null,"tier":null,"src":"peeringdb"},"geometry":{"type":"Point","coordinates":[2.257694,48.903746]}},{"type":"Feature","properties":{"id":"peeringdb-56","n":"Digital Realty Paris PAR1","op":"Digital Realty","address":"45 Avenue Victor Hugo","city":"Paris","country":"FR","clli":null,"tier":null,"src":"peeringdb"},"geometry":{"type":"Point","coordinates":[2.369496,48.902082]}},{"type":"Feature","properties":{"id":"peeringdb-57","n":"UltraEdge Lyon-Venissieux","op":"UltraEdge","address":"8 Rue Georges Marrane","city":"Vénissieux","country":"FR","clli":null,"tier":null,"src":"peeringdb"},"geometry":{"type":"Point","coordinates":[4.862905,45.722882]}},{"type":"Feature","properties":{"id":"peeringdb-58","n":"Digital Realty Frankfurt FRA1-27","op":"Digital Realty","address":"Hanauer Landstrasse 298","city":"Frankfurt","country":"DE","clli":"FRNKGE","tier":null,"src":"peeringdb"},"geometry":{"type":"Point","coordinates":[8.735199,50.11925]}},{"type":"Feature","properties":{"id":"peeringdb-59","n":"ITENOS Frankfurt (FRA1)","op":"ITENOS GmbH","address":"Kleyerstrasse 90 / Rebstoeckerstrasse 25-31","city":"Frankfurt","country":"DE","clli":"FRNKGE","tier":null,"src":"peeringdb"},"geometry":{"type":"Point","coordinates":[8.631763,50.099697]}},{"type":"Feature","properties":{"id":"peeringdb-60","n":"Equinix FR5 - Frankfurt, KleyerStrasse","op":"Equinix, Inc.","address":"Kleyerstrasse 90","city":"Frankfurt","country":"DE","clli":"FRNKGE","tier":null,"src":"peeringdb"},"geometry":{"type":"Point","coordinates":[8.632004,50.09885]}},{"type":"Feature","properties":{"id":"peeringdb-61","n":"Digital Realty Amsterdam AMS17","op":"Digital Realty","address":"Science Park 120","city":"Amsterdam","country":"NL","clli":null,"tier":null,"src":"peeringdb"},"geometry":{"type":"Point","coordinates":[4.951609,52.356353]}},{"type":"Feature","properties":{"id":"peeringdb-62","n":"Equinix AM7 - Amsterdam, Kuiperberweg","op":"Equinix, Inc.","address":"Kuiperbergweg 13","city":"Amsterdam","country":"NL","clli":"AMSTNL","tier":null,"src":"peeringdb"},"geometry":{"type":"Point","coordinates":[4.938009,52.303078]}},{"type":"Feature","properties":{"id":"peeringdb-63","n":"Global Switch Amsterdam","op":"Global Switch","address":"Johan Huizingalaan 759","city":"Amsterdam","country":"NL","clli":"AMSTNL","tier":null,"src":"peeringdb"},"geometry":{"type":"Point","coordinates":[4.828711,52.343984]}},{"type":"Feature","properties":{"id":"peeringdb-64","n":"Digital Realty Amsterdam AMS3, AMS5-8, AMS10","op":"Digital Realty","address":"Cessnalaan 1","city":"Amsterdam","country":"NL","clli":"AMSTNL","tier":null,"src":"peeringdb"},"geometry":{"type":"Point","coordinates":[4.770855,52.28415]}},{"type":"Feature","properties":{"id":"peeringdb-66","n":"Vienna University Computer Center (Wien)","op":"University of Vienna","address":"Universitaetsstrasse 7","city":"Vienna","country":"AT","clli":null,"tier":null,"src":"peeringdb"},"geometry":{"type":"Point","coordinates":[16.357784,48.214151]}},{"type":"Feature","properties":{"id":"peeringdb-67","n":"Digital Realty Vienna VIE1-2","op":"Digital Realty","address":"Louis-Haefliger-Gasse 10","city":"Vienna","country":"AT","clli":null,"tier":null,"src":"peeringdb"},"geometry":{"type":"Point","coordinates":[16.410613,48.269027]}},{"type":"Feature","properties":{"id":"peeringdb-68","n":"Digital Realty Brussels BRU1","op":"Digital Realty","address":"Wezenbeekstraat 2","city":"Brussels","country":"BE","clli":null,"tier":null,"src":"peeringdb"},"geometry":{"type":"Point","coordinates":[4.476941,50.870502]}},{"type":"Feature","properties":{"id":"peeringdb-71","n":"Digital Realty Seattle SEA10","op":"Digital Realty","address":"2001 Sixth Avenue","city":"Seattle","country":"US","clli":"STTLWAWB","tier":null,"src":"peeringdb"},"geometry":{"type":"Point","coordinates":[-122.338883,47.614347]}},{"type":"Feature","properties":{"id":"peeringdb-72","n":"Equinix PA7 - Paris, Energy Park","op":"Equinix, Inc.","address":"130-136 Boulevard de Verdun","city":"Paris","country":"FR","clli":"PARSFR","tier":null,"src":"peeringdb"},"geometry":{"type":"Point","coordinates":[2.259202,48.904891]}},{"type":"Feature","properties":{"id":"peeringdb-73","n":"Equinix PA5 - Paris, Victor Hugo","op":"Equinix, Inc.","address":"45 Avenue Victor Hugo","city":"Paris","country":"FR","clli":"PARSFR","tier":null,"src":"peeringdb"},"geometry":{"type":"Point","coordinates":[2.369221,48.90407]}},{"type":"Feature","properties":{"id":"peeringdb-74","n":"Equinix FR7 - Frankfurt, Gutleutstrasse","op":"Equinix, Inc.","address":"Gutleutstrasse 310","city":"Frankfurt","country":"DE","clli":"FRNKGE","tier":null,"src":"peeringdb"},"geometry":{"type":"Point","coordinates":[8.644169,50.096869]}},{"type":"Feature","properties":{"id":"peeringdb-75","n":"Digital Realty Paris PAR2","op":"Digital Realty","address":"20 Rue des Gardinoux","city":"Paris","country":"FR","clli":null,"tier":null,"src":"peeringdb"},"geometry":{"type":"Point","coordinates":[2.370417,48.906617]}},{"type":"Feature","properties":{"id":"peeringdb-76","n":"Equinix MA1 - Manchester, Williams/Kilburn","op":"Equinix, Inc.","address":"Manchester Science Park","city":"Manchester","country":"GB","clli":null,"tier":null,"src":"peeringdb"},"geometry":{"type":"Point","coordinates":[-2.236869,53.463112]}},{"type":"Feature","properties":{"id":"peeringdb-78","n":"Reynolds House, Manchester","op":"Lunar Digital Solutions Limited","address":"Reynolds House","city":"Manchester","country":"GB","clli":null,"tier":null,"src":"peeringdb"},"geometry":{"type":"Point","coordinates":[-2.247633,53.464393]}},{"type":"Feature","properties":{"id":"peeringdb-79","n":"Digital Realty London LHR21 (closed)","op":"Digital Realty","address":"Memaco House, Meridian Gate","city":"London","country":"GB","clli":null,"tier":null,"src":"peeringdb"},"geometry":{"type":"Point","coordinates":[-0.011758,51.500621]}},{"type":"Feature","properties":{"id":"peeringdb-80","n":"Equinix AM8 - Amsterdam, Gyroscoopweg","op":"Equinix, Inc.","address":"Gyroscoopweg 2E & 2F","city":"Amsterdam","country":"NL","clli":"AMSTNL","tier":null,"src":"peeringdb"},"geometry":{"type":"Point","coordinates":[4.838579,52.396814]}},{"type":"Feature","properties":{"id":"peeringdb-81","n":"Digital Realty Zurich ZUR1","op":"Digital Realty","address":"Sägereistrasse 35","city":"Glattbrugg","country":"CH","clli":null,"tier":null,"src":"peeringdb"},"geometry":{"type":"Point","coordinates":[8.557273,47.432702]}},{"type":"Feature","properties":{"id":"peeringdb-83","n":"Equinix ZH2 - Zurich","op":"Equinix, Inc.","address":"Josefstrasse 225","city":"Zurich","country":"CH","clli":null,"tier":null,"src":"peeringdb"},"geometry":{"type":"Point","coordinates":[8.520255,47.387749]}},{"type":"Feature","properties":{"id":"peeringdb-84","n":"KDWEB San Jose","op":"KDWEB","address":"50 W San Fernando","city":"San Jose","country":"US","clli":"SNJSCA","tier":null,"src":"peeringdb"},"geometry":{"type":"Point","coordinates":[-121.889302,37.333885]}},{"type":"Feature","properties":{"id":"peeringdb-85","n":"Equinix SV17 - Silicon Valley, Santa Clara","op":"Equinix, Inc.","address":"3030 Corvin Dr","city":"Santa Clara","country":"US","clli":"SNTCCA","tier":null,"src":"peeringdb"},"geometry":{"type":"Point","coordinates":[-121.988591,37.376348]}},{"type":"Feature","properties":{"id":"peeringdb-86","n":"Equinix SE2/SE3 - Seattle","op":"Equinix, Inc.","address":"2001 Sixth Avenue","city":"Seattle","country":"US","clli":"STTLWA","tier":null,"src":"peeringdb"},"geometry":{"type":"Point","coordinates":[-122.338864,47.614358]}},{"type":"Feature","properties":{"id":"peeringdb-88","n":"Equinix DC7 - Ashburn, Vienna","op":"Equinix, Inc.","address":"7990 Science Applications Ct","city":"Vienna","country":"US","clli":"VINNVA","tier":null,"src":"peeringdb"},"geometry":{"type":"Point","coordinates":[-77.219692,38.908422]}},{"type":"Feature","properties":{"id":"peeringdb-91","n":"COLT DC London","op":"Colt Technology Services Group","address":"Welwyn Garden City, 20 Black Fan Road","city":"London","country":"GB","clli":null,"tier":null,"src":"peeringdb"},"geometry":{"type":"Point","coordinates":[-0.183762,51.799899]}},{"type":"Feature","properties":{"id":"peeringdb-97","n":"AtlasEdge DC Milan LIN001","op":"AtlasEdge","address":"Via Lancetti 23","city":"Milan","country":"IT","clli":null,"tier":null,"src":"peeringdb"},"geometry":{"type":"Point","coordinates":[9.17865,45.49538]}},{"type":"Feature","properties":{"id":"peeringdb-101","n":"LAN Services AG - Communication Center cc.ch","op":"LAN Services AG","address":"Chipotstrasse 15","city":"Biel/Bienne","country":"CH","clli":null,"tier":null,"src":"peeringdb"},"geometry":{"type":"Point","coordinates":[7.241053,47.130774]}},{"type":"Feature","properties":{"id":"peeringdb-102","n":"Equinix LA2 - Los Angeles","op":"Equinix, Inc.","address":"818 W 7th St","city":"Los Angeles","country":"US","clli":"LSANCA","tier":null,"src":"peeringdb"},"geometry":{"type":"Point","coordinates":[-118.259585,34.048897]}},{"type":"Feature","properties":{"id":"peeringdb-104","n":"Digital Realty Amsterdam AMS9","op":"Digital Realty","address":"Science Park 121","city":"Amsterdam","country":"NL","clli":"AMSTNL","tier":null,"src":"peeringdb"},"geometry":{"type":"Point","coordinates":[4.952501,52.356671]}},{"type":"Feature","properties":{"id":"peeringdb-106","n":"Digital Realty Dusseldorf DUS1-3","op":"Digital Realty","address":"In der Steele 25‑45","city":"Düsseldorf","country":"DE","clli":null,"tier":null,"src":"peeringdb"},"geometry":{"type":"Point","coordinates":[6.869937,51.186111]}},{"type":"Feature","properties":{"id":"peeringdb-108","n":"Telehouse - Frankfurt","op":"Telehouse - Global Data Centers","address":"Kleyerstrasse 75-87","city":"Frankfurt","country":"DE","clli":"FRNKGE","tier":null,"src":"peeringdb"},"geometry":{"type":"Point","coordinates":[8.630057,50.096962]}},{"type":"Feature","properties":{"id":"peeringdb-109","n":"EdgeConneX Munich (EDCMUC01)","op":"EdgeConneX Inc.","address":"Landsberger Str. 155","city":"Munich","country":"DE","clli":null,"tier":null,"src":"peeringdb"},"geometry":{"type":"Point","coordinates":[11.526173,48.139859]}},{"type":"Feature","properties":{"id":"peeringdb-110","n":"BIT-1","op":"BIT BV","address":"Kelvinstraat 63","city":"Ede","country":"NL","clli":null,"tier":null,"src":"peeringdb"},"geometry":{"type":"Point","coordinates":[5.624974,52.030762]}},{"type":"Feature","properties":{"id":"peeringdb-111","n":"ColoCenter Frankfurt","op":"ColoCenter FrankfurtRheinMain GmbH","address":"Schwalbacher Strasse 60","city":"Frankfurt","country":"DE","clli":null,"tier":null,"src":"peeringdb"},"geometry":{"type":"Point","coordinates":[8.636254,50.103483]}},{"type":"Feature","properties":{"id":"peeringdb-112","n":"Level(3) Paris (Le Capitole)","op":"Colt Technology Services Group","address":"55 Avenue des Champs Pierreux","city":"Paris","country":"FR","clli":null,"tier":null,"src":"peeringdb"},"geometry":{"type":"Point","coordinates":[2.21513,48.887694]}},{"type":"Feature","properties":{"id":"peeringdb-117","n":"TAS Sophia","op":"TAS France","address":"World Trade Center 1 - B7","city":"Antibes","country":"FR","clli":null,"tier":null,"src":"peeringdb"},"geometry":{"type":"Point","coordinates":[7.038047,43.628052]}},{"type":"Feature","properties":{"id":"peeringdb-118","n":"Equinix EN1 - Enschede","op":"Equinix, Inc.","address":"Auke Vleerstraat 1","city":"Enschede","country":"NL","clli":null,"tier":null,"src":"peeringdb"},"geometry":{"type":"Point","coordinates":[6.84964,52.236979]}},{"type":"Feature","properties":{"id":"peeringdb-119","n":"Digital Realty Frankfurt FRA28","op":"Digital Realty","address":"Lyoner Strasse 28","city":"Frankfurt","country":"DE","clli":null,"tier":null,"src":"peeringdb"},"geometry":{"type":"Point","coordinates":[8.623156,50.081709]}},{"type":"Feature","properties":{"id":"peeringdb-120","n":"Digital Realty NYC (32 AofA)","op":"Digital Realty","address":"32 6th Ave (Avenue of the Americas)","city":"New York","country":"US","clli":"NYCMNY","tier":null,"src":"peeringdb"},"geometry":{"type":"Point","coordinates":[-74.004561,40.72]}},{"type":"Feature","properties":{"id":"peeringdb-121","n":"Espanix Datacenter","op":"Asociación ESpanix","address":"Mesena 80","city":"Madrid","country":"ES","clli":null,"tier":null,"src":"peeringdb"},"geometry":{"type":"Point","coordinates":[-3.660963,40.466022]}},{"type":"Feature","properties":{"id":"peeringdb-122","n":"Equinix BA1 - Barcelona","op":"Equinix, Inc.","address":"Carrer de l'Acer 30-32","city":"Barcelona","country":"ES","clli":null,"tier":null,"src":"peeringdb"},"geometry":{"type":"Point","coordinates":[2.137457,41.351557]}},{"type":"Feature","properties":{"id":"peeringdb-126","n":"Equinix LS1 - Lisbon","op":"Equinix, Inc.","address":"Avenida Severiano Falcão 14","city":"Lisbon","country":"PT","clli":null,"tier":null,"src":"peeringdb"},"geometry":{"type":"Point","coordinates":[-9.123454,38.787919]}},{"type":"Feature","properties":{"id":"peeringdb-127","n":"Equinix MD2 - Madrid","op":"Equinix, Inc.","address":"Calle Valgrande 6","city":"Alcobendas","country":"ES","clli":null,"tier":null,"src":"peeringdb"},"geometry":{"type":"Point","coordinates":[-3.648584,40.536855]}},{"type":"Feature","properties":{"id":"peeringdb-129","n":"IWB Datacenter Basel","op":"IWB","address":"Dachsfelderstrasse 17","city":"Basel","country":"CH","clli":null,"tier":null,"src":"peeringdb"},"geometry":{"type":"Point","coordinates":[7.582093,47.546259]}},{"type":"Feature","properties":{"id":"peeringdb-130","n":"Digital Realty Madrid MAD1-2","op":"Digital Realty","address":"C/ Albasanz 71","city":"Madrid","country":"ES","clli":null,"tier":null,"src":"peeringdb"},"geometry":{"type":"Point","coordinates":[-3.621211,40.439323]}},{"type":"Feature","properties":{"id":"peeringdb-131","n":"Equinix SY1/SY2 - Sydney","op":"Equinix, Inc.","address":"639 Gardeners Road","city":"Sydney","country":"AU","clli":"SYDNAU","tier":null,"src":"peeringdb"},"geometry":{"type":"Point","coordinates":[151.188025,-33.921868]}},{"type":"Feature","properties":{"id":"peeringdb-135","n":"Level(3) Brussels","op":"Colt Technology Services Group","address":"Leon Grosjeanlaan 2","city":"Brussels","country":"BE","clli":null,"tier":null,"src":"peeringdb"},"geometry":{"type":"Point","coordinates":[4.412116,50.857721]}},{"type":"Feature","properties":{"id":"peeringdb-138","n":"CSUC Campus Nord","op":"CSUC","address":"Gran Capita, 2 - 4 (Edifici Nexus)","city":"Barcelona","country":"ES","clli":null,"tier":null,"src":"peeringdb"},"geometry":{"type":"Point","coordinates":[2.111883,41.387314]}},{"type":"Feature","properties":{"id":"peeringdb-139","n":"Equinix GV1 - Geneva, City","op":"Equinix, Inc.","address":"Rue de la Confédération 6","city":"Geneva","country":"CH","clli":null,"tier":null,"src":"peeringdb"},"geometry":{"type":"Point","coordinates":[6.144251,46.203607]}},{"type":"Feature","properties":{"id":"peeringdb-142","n":"Telehouse – TOKYO Otemachi (KDDI Otemachi)","op":"Telehouse - Global Data Centers","address":"Otemachi Building","city":"Tokyo","country":"JP","clli":null,"tier":null,"src":"peeringdb"},"geometry":{"type":"Point","coordinates":[139.764809,35.686406]}},{"type":"Feature","properties":{"id":"peeringdb-143","n":"KINX Dogok","op":"KINX Inc.","address":"5F, Daelim Acrotel, 13, Eonju-ro 30-gil, Gangnam-gu","city":"Seoul","country":"KR","clli":null,"tier":null,"src":"peeringdb"},"geometry":{"type":"Point","coordinates":[127.051167,37.488139]}},{"type":"Feature","properties":{"id":"peeringdb-144","n":"Equinix DC8 - Ashburn, Vienna","op":"Equinix, Inc.","address":"8502A Tyco Rd","city":"Vienna","country":"US","clli":"VINNVA","tier":null,"src":"peeringdb"},"geometry":{"type":"Point","coordinates":[-77.238951,38.931419]}},{"type":"Feature","properties":{"id":"peeringdb-146","n":"Equinix PH1 - Philadelphia","op":"Equinix, Inc.","address":"401 North Broad Street","city":"Philadelphia","country":"US","clli":null,"tier":null,"src":"peeringdb"},"geometry":{"type":"Point","coordinates":[-75.161377,39.959668]}},{"type":"Feature","properties":{"id":"peeringdb-147","n":"Evocative San Jose (SV7)","op":"VPLS","address":"534 Stockton Avenue","city":"San Jose","country":"US","clli":"SNJSCA","tier":null,"src":"peeringdb"},"geometry":{"type":"Point","coordinates":[-121.910133,37.338431]}},{"type":"Feature","properties":{"id":"peeringdb-148","n":"Digital Realty Copenhagen CPH1-3","op":"Digital Realty","address":"Industriparken 20A","city":"Copenhagen","country":"DK","clli":null,"tier":null,"src":"peeringdb"},"geometry":{"type":"Point","coordinates":[12.377482,55.728092]}},{"type":"Feature","properties":{"id":"peeringdb-149","n":"iM Critical Miami","op":"iM Critical","address":"100 NE 80th. Terrace","city":"Miami","country":"US","clli":null,"tier":null,"src":"peeringdb"},"geometry":{"type":"Point","coordinates":[-80.194926,25.848356]}},{"type":"Feature","properties":{"id":"peeringdb-152","n":"Moscow M9","op":"MMTS-9 JSC","address":"7, Butlerova street","city":"Moscow","country":"RU","clli":null,"tier":null,"src":"peeringdb"},"geometry":{"type":"Point","coordinates":[37.528861,55.652639]}},{"type":"Feature","properties":{"id":"peeringdb-153","n":"NorthC Duesseldorf","op":"NorthC Deutschland GmbH","address":"In Der Steele 37A","city":"Düsseldorf","country":"DE","clli":null,"tier":null,"src":"peeringdb"},"geometry":{"type":"Point","coordinates":[6.86728,51.18819]}},{"type":"Feature","properties":{"id":"peeringdb-154","n":"Telnet Caldera Milan","op":"Telnet","address":"Via Caldera 21 - Easy Point (Building F)","city":"Milan","country":"IT","clli":null,"tier":null,"src":"peeringdb"},"geometry":{"type":"Point","coordinates":[9.103887,45.476177]}},{"type":"Feature","properties":{"id":"peeringdb-155","n":"Speedbone Berlin","op":"Speedbone GmbH","address":"Alboinstr. 36 - 42","city":"Berlin","country":"DE","clli":"BRLNGE","tier":null,"src":"peeringdb"},"geometry":{"type":"Point","coordinates":[13.369905,52.465779]}},{"type":"Feature","properties":{"id":"peeringdb-156","n":"Equinix SK1 - Stockholm, Bromma","op":"Equinix, Inc.","address":"Mariehällsvägen 36","city":"Stockholm","country":"SE","clli":null,"tier":null,"src":"peeringdb"},"geometry":{"type":"Point","coordinates":[17.955657,59.362574]}},{"type":"Feature","properties":{"id":"peeringdb-157","n":"colobern.ch Bern","op":"NTS Workspace AG","address":"Wölflistrasse 1D","city":"Bern","country":"CH","clli":null,"tier":null,"src":"peeringdb"},"geometry":{"type":"Point","coordinates":[7.478187,46.964845]}},{"type":"Feature","properties":{"id":"peeringdb-158","n":"GlobalConnect Taastrup 1 (CPH1)","op":"GlobalConnect Group","address":"Hørskætten 3-5 and 12","city":"Taastrup","country":"DK","clli":null,"tier":null,"src":"peeringdb"},"geometry":{"type":"Point","coordinates":[12.301459,55.662]}},{"type":"Feature","properties":{"id":"peeringdb-159","n":"PIPE Networks Brisbane","op":"Vocus Group","address":"Level 9,","city":"Brisbane","country":"AU","clli":null,"tier":null,"src":"peeringdb"},"geometry":{"type":"Point","coordinates":[153.027805,-27.465681]}},{"type":"Feature","properties":{"id":"peeringdb-160","n":"PIPE Networks Sydney","op":"Vocus Group","address":"Level 13,","city":"Sydney","country":"AU","clli":null,"tier":null,"src":"peeringdb"},"geometry":{"type":"Point","coordinates":[151.20777,-33.874077]}},{"type":"Feature","properties":{"id":"peeringdb-161","n":"PIPE Networks Melbourne","op":"Vocus Group","address":"Level 3,","city":"Melbourne","country":"AU","clli":null,"tier":null,"src":"peeringdb"},"geometry":{"type":"Point","coordinates":[144.956726,-37.819171]}},{"type":"Feature","properties":{"id":"peeringdb-162","n":"PIPE Networks Adelaide","op":"Vocus Group","address":"Level 2,","city":"Adelaide","country":"AU","clli":null,"tier":null,"src":"peeringdb"},"geometry":{"type":"Point","coordinates":[138.594121,-34.927233]}},{"type":"Feature","properties":{"id":"peeringdb-163","n":"PIPE Networks Hobart","op":"Vocus Group","address":"Level 2,","city":"Hobart","country":"AU","clli":null,"tier":null,"src":"peeringdb"},"geometry":{"type":"Point","coordinates":[147.328921,-42.881849]}},{"type":"Feature","properties":{"id":"peeringdb-164","n":"Equinix DB1 - Dublin, CityWest","op":"Equinix, Inc.","address":"Unit 4027, Kingswood Road","city":"Dublin","country":"IE","clli":null,"tier":null,"src":"peeringdb"},"geometry":{"type":"Point","coordinates":[-6.41897,53.296306]}},{"type":"Feature","properties":{"id":"peeringdb-165","n":"Equinix SP4 - São Paulo","op":"Equinix, Inc.","address":"Av. Ceci, 1900 - Res. Tambore","city":"Barueri","country":"BR","clli":null,"tier":null,"src":"peeringdb"},"geometry":{"type":"Point","coordinates":[-46.814577,-23.497589]}},{"type":"Feature","properties":{"id":"peeringdb-166","n":"Verizon Madrid","op":"Verizon Communications, Inc.","address":"C/ Yecora 4","city":"Madrid","country":"ES","clli":null,"tier":null,"src":"peeringdb"},"geometry":{"type":"Point","coordinates":[-3.574684,40.447968]}},{"type":"Feature","properties":{"id":"peeringdb-167","n":"Harbour Centre Vancouver","op":"Polaris Realty","address":"555 West Hastings St.","city":"Vancouver","country":"CA","clli":"VANCBC","tier":null,"src":"peeringdb"},"geometry":{"type":"Point","coordinates":[-123.111935,49.284697]}},{"type":"Feature","properties":{"id":"peeringdb-168","n":"Equinix TY1 - Tokyo","op":"Equinix, Inc.","address":"TRC-C Building B Block, 4F 5-1","city":"Tokyo","country":"JP","clli":"EQTKJP","tier":null,"src":"peeringdb"},"geometry":{"type":"Point","coordinates":[139.749055,35.576366]}},{"type":"Feature","properties":{"id":"peeringdb-170","n":"Equinix HK1 - Hong Kong","op":"Equinix, Inc.","address":"17/F Global Gateway (Hong Kong)","city":"Tsuen Wan","country":"HK","clli":null,"tier":null,"src":"peeringdb"},"geometry":{"type":"Point","coordinates":[114.11932,22.365581]}},{"type":"Feature","properties":{"id":"peeringdb-171","n":"Digital Realty PHX10 (120 E Van Buren)","op":"Digital Realty","address":"120 East Van Buren Street","city":"Phoenix","country":"US","clli":"PHNXAZ","tier":null,"src":"peeringdb"},"geometry":{"type":"Point","coordinates":[-112.072042,33.452003]}},{"type":"Feature","properties":{"id":"peeringdb-176","n":"Level(3) Sunnyvale","op":"Lumen Technologies Inc","address":"1380 Kifer Rd.","city":"Sunnyvale","country":"US","clli":"SNVACA","tier":null,"src":"peeringdb"},"geometry":{"type":"Point","coordinates":[-121.98778,37.373412]}},{"type":"Feature","properties":{"id":"peeringdb-177","n":"Digital Realty Dublin DUB1-2","op":"Digital Realty","address":"Unit 35 Lavery Avenue","city":"Dublin","country":"IE","clli":null,"tier":null,"src":"peeringdb"},"geometry":{"type":"Point","coordinates":[-6.365538,53.334251]}},{"type":"Feature","properties":{"id":"peeringdb-178","n":"Equinix DB2 - Dublin, Kilcarbery","op":"Equinix, Inc.","address":"Kilcarbery Business Park","city":"Dublin","country":"IE","clli":null,"tier":null,"src":"peeringdb"},"geometry":{"type":"Point","coordinates":[-6.439957,53.318647]}},{"type":"Feature","properties":{"id":"peeringdb-179","n":"Equinix MD1 - Madrid","op":"Equinix, Inc.","address":"Calle Isabel Colbrand 6-8","city":"Madrid","country":"ES","clli":null,"tier":null,"src":"peeringdb"},"geometry":{"type":"Point","coordinates":[-3.671891,40.513497]}},{"type":"Feature","properties":{"id":"peeringdb-180","n":"Digital Realty Dublin DUB10","op":"Digital Realty","address":"Unit 9 Blanchardstown Corporate Park","city":"Dublin","country":"IE","clli":null,"tier":null,"src":"peeringdb"},"geometry":{"type":"Point","coordinates":[-6.366707,53.412081]}},{"type":"Feature","properties":{"id":"peeringdb-181","n":"Global Switch Paris","op":"Global Switch","address":"7-9 rue petit","city":"Paris","country":"FR","clli":null,"tier":null,"src":"peeringdb"},"geometry":{"type":"Point","coordinates":[2.296095,48.899823]}},{"type":"Feature","properties":{"id":"peeringdb-184","n":"Printer's Square Chicago (600 S Federal)","op":"Printer's Square","address":"600 S Federal","city":"Chicago","country":"US","clli":null,"tier":null,"src":"peeringdb"},"geometry":{"type":"Point","coordinates":[-87.629928,41.874302]}},{"type":"Feature","properties":{"id":"peeringdb-185","n":"NorthC Nürnberg","op":"NorthC Deutschland GmbH","address":"Am Tower 5","city":"Nuremberg","country":"DE","clli":null,"tier":null,"src":"peeringdb"},"geometry":{"type":"Point","coordinates":[11.17706,49.38991]}},{"type":"Feature","properties":{"id":"peeringdb-186","n":"Netrality - Indy Telcom Center - 733 W. Henry","op":"Netrality Data Centers","address":"733 W. Henry St","city":"Indianapolis","country":"US","clli":"IPLVIN","tier":null,"src":"peeringdb"},"geometry":{"type":"Point","coordinates":[-86.172275,39.75988]}},{"type":"Feature","properties":{"id":"peeringdb-187","n":"Versatel Gent (Handelsdok Center)","op":"Versatel","address":"Stapelplein 70B","city":"Ghent","country":"BE","clli":null,"tier":null,"src":"peeringdb"},"geometry":{"type":"Point","coordinates":[3.734616,51.063866]}},{"type":"Feature","properties":{"id":"peeringdb-189","n":"FiberNet Telecom Group New York (111 Eighth Ave)","op":"FiberNet Telecom Group","address":"111 Eighth Ave","city":"New York","country":"US","clli":"NYCMNY","tier":null,"src":"peeringdb"},"geometry":{"type":"Point","coordinates":[-74.003203,40.741355]}},{"type":"Feature","properties":{"id":"peeringdb-190","n":"LCL Antwerp","op":"LCL Belgium","address":"Noorderlaan 133","city":"Antwerp","country":"BE","clli":null,"tier":null,"src":"peeringdb"},"geometry":{"type":"Point","coordinates":[4.402951,51.264294]}},{"type":"Feature","properties":{"id":"peeringdb-191","n":"Versatel Antwerp","op":"Versatel","address":"Noorderlaan 113","city":"Antwerp","country":"BE","clli":null,"tier":null,"src":"peeringdb"},"geometry":{"type":"Point","coordinates":[4.41733,51.262686]}},{"type":"Feature","properties":{"id":"peeringdb-192","n":"NorthC Munich 2","op":"NorthC Deutschland GmbH","address":"Wamslerstrasse 8","city":"Munich","country":"DE","clli":null,"tier":null,"src":"peeringdb"},"geometry":{"type":"Point","coordinates":[11.662742,48.135973]}},{"type":"Feature","properties":{"id":"peeringdb-193","n":"LCL Brussels (Diegem)","op":"LCL Belgium","address":"Kouterveldstraat 13","city":"Brussels","country":"BE","clli":null,"tier":null,"src":"peeringdb"},"geometry":{"type":"Point","coordinates":[4.455068,50.887474]}},{"type":"Feature","properties":{"id":"peeringdb-195","n":"AAPT Glebe","op":"Vocus Group","address":"30 Ross Street","city":"Sydney","country":"AU","clli":null,"tier":null,"src":"peeringdb"},"geometry":{"type":"Point","coordinates":[151.182583,-33.883255]}},{"type":"Feature","properties":{"id":"peeringdb-196","n":"DigiCo Sydney SYD1 (formerly Global Switch Australia)","op":"DigiCo","address":"400 Harris Street","city":"Sydney","country":"AU","clli":null,"tier":null,"src":"peeringdb"},"geometry":{"type":"Point","coordinates":[151.197691,-33.875599]}},{"type":"Feature","properties":{"id":"peeringdb-198","n":"AAPT Brisbane","op":"Vocus Group","address":"Level 8, 123 Eagle Street","city":"Brisbane","country":"AU","clli":null,"tier":null,"src":"peeringdb"},"geometry":{"type":"Point","coordinates":[153.030416,-27.467146]}},{"type":"Feature","properties":{"id":"peeringdb-199","n":"AAPT Fortitude Valley","op":"Vocus Group","address":"Level 1, 100 Wickham Street","city":"Brisbane","country":"AU","clli":null,"tier":null,"src":"peeringdb"},"geometry":{"type":"Point","coordinates":[153.03099,-27.459649]}},{"type":"Feature","properties":{"id":"peeringdb-201","n":"AAPT Adelaide","op":"Vocus Group","address":"Level 1, 45 Pirie Street","city":"Adelaide","country":"AU","clli":null,"tier":null,"src":"peeringdb"},"geometry":{"type":"Point","coordinates":[138.6013,-34.926075]}},{"type":"Feature","properties":{"id":"peeringdb-203","n":"Deutschherrnkarree","op":"Treureal Property Management GmbH","address":"Deutschherrnstraße 15-19","city":"Nuremberg","country":"DE","clli":null,"tier":null,"src":"peeringdb"},"geometry":{"type":"Point","coordinates":[11.063356,49.453955]}},{"type":"Feature","properties":{"id":"peeringdb-206","n":"STOKAB KN5, Södermalm","op":"AB Stokab","address":"Zinkens Väg 47","city":"Stockholm","country":"SE","clli":null,"tier":null,"src":"peeringdb"},"geometry":{"type":"Point","coordinates":[18.045546,59.31535]}},{"type":"Feature","properties":{"id":"peeringdb-207","n":"STOKAB KN6, Hammarby","op":"AB Stokab","address":"Kalmgatan 4","city":"Stockholm","country":"SE","clli":null,"tier":null,"src":"peeringdb"},"geometry":{"type":"Point","coordinates":[18.089786,59.298407]}},{"type":"Feature","properties":{"id":"peeringdb-208","n":"Digital Realty Stockholm STO1-6","op":"Digital Realty","address":"Esbogatan 11","city":"Stockholm","country":"SE","clli":null,"tier":null,"src":"peeringdb"},"geometry":{"type":"Point","coordinates":[17.916696,59.422226]}},{"type":"Feature","properties":{"id":"peeringdb-209","n":"Level(3) Weehawken","op":"Lumen Technologies Inc","address":"300 JFK Boulevard East","city":"Weehawken","country":"US","clli":"WHWKNJ","tier":null,"src":"peeringdb"},"geometry":{"type":"Point","coordinates":[-74.025031,40.761825]}},{"type":"Feature","properties":{"id":"peeringdb-211","n":"Singapore Open Exchange (SOX)","op":"noc@sox.net.sg","address":"National University of Singapore / Computer Centre","city":"Singapore","country":"SG","clli":null,"tier":null,"src":"peeringdb"},"geometry":{"type":"Point","coordinates":[103.772471,1.297541]}},{"type":"Feature","properties":{"id":"peeringdb-212","n":"Spaanse Kubus Rotterdam","op":"TCNPP","address":"Vlaardingweg 62 - 415","city":"Rotterdam","country":"NL","clli":null,"tier":null,"src":"peeringdb"},"geometry":{"type":"Point","coordinates":[4.414322,51.930359]}},{"type":"Feature","properties":{"id":"peeringdb-213","n":"Unilogic Networks Datacenter Sittard","op":"Unilogic Networks B.V.","address":"Bergerweg 120","city":"Sittard","country":"NL","clli":null,"tier":null,"src":"peeringdb"},"geometry":{"type":"Point","coordinates":[5.845593,50.995925]}},{"type":"Feature","properties":{"id":"peeringdb-214","n":"CE Colo Prague","op":"CE Colo Czech s.r.o.","address":"Nad Elektrarnou 1428/47","city":"Prague","country":"CZ","clli":null,"tier":null,"src":"peeringdb"},"geometry":{"type":"Point","coordinates":[14.482978,50.060164]}},{"type":"Feature","properties":{"id":"peeringdb-215","n":"DC Tower Zizkov CRa","op":"Radiokomunikace, a.s.","address":"Mahlerovy sady 1","city":"Prague","country":"CZ","clli":null,"tier":null,"src":"peeringdb"},"geometry":{"type":"Point","coordinates":[14.451122,50.08103]}},{"type":"Feature","properties":{"id":"peeringdb-216","n":"GTS Telehouse Prague","op":"GTS Novera, a.s.","address":"Vinohradská 190","city":"Prague","country":"CZ","clli":null,"tier":null,"src":"peeringdb"},"geometry":{"type":"Point","coordinates":[14.475889,50.078094]}},{"type":"Feature","properties":{"id":"peeringdb-217","n":"Pragonet Telehouse Prague","op":"T-Systems Pragonet, a.s.","address":"5. května 65","city":"Prague","country":"CZ","clli":null,"tier":null,"src":"peeringdb"},"geometry":{"type":"Point","coordinates":[14.428607,50.062152]}},{"type":"Feature","properties":{"id":"peeringdb-218","n":"Arelion Dusseldorf DDF/B","op":"Arelion","address":"In der Steele 43","city":"Düsseldorf","country":"DE","clli":null,"tier":null,"src":"peeringdb"},"geometry":{"type":"Point","coordinates":[6.86608,51.188]}},{"type":"Feature","properties":{"id":"peeringdb-219","n":"Markley Group One Summer Street Boston","op":"Markley Group, LLC","address":"1 Summer Street","city":"Boston","country":"US","clli":"BSTNMA","tier":null,"src":"peeringdb"},"geometry":{"type":"Point","coordinates":[-71.060266,42.354692]}},{"type":"Feature","properties":{"id":"peeringdb-220","n":"BCE Colocation Luxembourg","op":"BCE","address":"43, Boulevard Pierre Frieden","city":"Luxembourg","country":"LU","clli":null,"tier":null,"src":"peeringdb"},"geometry":{"type":"Point","coordinates":[6.163425,49.637537]}},{"type":"Feature","properties":{"id":"peeringdb-222","n":"Telia Telehouse Copenhagen","op":"Telia Company","address":"Sydvestvej 100","city":"Copenhagen","country":"DK","clli":null,"tier":null,"src":"peeringdb"},"geometry":{"type":"Point","coordinates":[12.377342,55.661921]}},{"type":"Feature","properties":{"id":"peeringdb-225","n":"MEGA-i (iAdvantage Hong Kong)","op":"iAdvantage Hong Kong","address":"399 Chai Wan Road","city":"Hong Kong","country":"HK","clli":null,"tier":null,"src":"peeringdb"},"geometry":{"type":"Point","coordinates":[114.246512,22.266098]}},{"type":"Feature","properties":{"id":"peeringdb-226","n":"Digital Realty Marseille MRS1/2/3/4","op":"Digital Realty","address":"MRS1: 40 Avenue Roger Salengro","city":"Marseille","country":"FR","clli":null,"tier":null,"src":"peeringdb"},"geometry":{"type":"Point","coordinates":[5.373865,43.310818]}},{"type":"Feature","properties":{"id":"peeringdb-229","n":"Equinix PA1 - Paris, Roissy","op":"Equinix, Inc.","address":"Rue de la Belle Etoile, 167","city":"Roissy-en-France","country":"FR","clli":"PARSFR","tier":null,"src":"peeringdb"},"geometry":{"type":"Point","coordinates":[2.507095,48.983691]}},{"type":"Feature","properties":{"id":"peeringdb-230","n":"Cogent Lille","op":"Cogent Communications, Inc.","address":"72 rue Jenner","city":"Lille","country":"FR","clli":null,"tier":null,"src":"peeringdb"},"geometry":{"type":"Point","coordinates":[3.090551,50.63768]}},{"type":"Feature","properties":{"id":"peeringdb-231","n":"Multicoms Paris (Velizy)","op":"MULTICOMS FACILITIES MANAGEMENT","address":"6 Allée Latécoère","city":"Paris","country":"FR","clli":null,"tier":null,"src":"peeringdb"},"geometry":{"type":"Point","coordinates":[2.209917,48.785043]}},{"type":"Feature","properties":{"id":"peeringdb-232","n":"UltraEdge Bordeaux","op":"UltraEdge","address":"3 Rue du Dr Gabriel Péri","city":"Bordeaux","country":"FR","clli":null,"tier":null,"src":"peeringdb"},"geometry":{"type":"Point","coordinates":[-0.557446,44.889171]}},{"type":"Feature","properties":{"id":"peeringdb-233","n":"UltraEdge Strasbourg","op":"UltraEdge","address":"1 rue du Havre","city":"Strasbourg","country":"FR","clli":null,"tier":null,"src":"peeringdb"},"geometry":{"type":"Point","coordinates":[7.781145,48.569149]}},{"type":"Feature","properties":{"id":"peeringdb-234","n":"Peace Communications  KNX1","op":"Peace Communications (Formerly Nexus Group)","address":"500 W. Summit Hill","city":"Knoxville","country":"US","clli":"KNVLTN","tier":null,"src":"peeringdb"},"geometry":{"type":"Point","coordinates":[-83.921438,35.965586]}},{"type":"Feature","properties":{"id":"peeringdb-235","n":"Mediagateway","op":"Ericsson Broadcast Services Netherlands","address":"Koos Postemalaan 2","city":"Hilversum","country":"NL","clli":null,"tier":null,"src":"peeringdb"},"geometry":{"type":"Point","coordinates":[5.169722,52.241526]}},{"type":"Feature","properties":{"id":"peeringdb-236","n":"Digital Realty Amsterdam AMS1/4 (closed)","op":"Digital Realty","address":"Gyroscoopweg 60-62","city":"Amsterdam","country":"NL","clli":"AMSTNL","tier":null,"src":"peeringdb"},"geometry":{"type":"Point","coordinates":[4.842597,52.399861]}},{"type":"Feature","properties":{"id":"peeringdb-238","n":"NorthC Oude Meer","op":"NorthC Datacenters","address":"Fokkerweg 300","city":"Oude Meer","country":"NL","clli":"AMSTNL","tier":null,"src":"peeringdb"},"geometry":{"type":"Point","coordinates":[4.788162,52.29257]}},{"type":"Feature","properties":{"id":"peeringdb-239","n":"NorthC Aalsmeer","op":"NorthC Datacenters","address":"Lakenblekerstraat 13","city":"Aalsmeer","country":"NL","clli":null,"tier":null,"src":"peeringdb"},"geometry":{"type":"Point","coordinates":[4.774186,52.259795]}},{"type":"Feature","properties":{"id":"peeringdb-241","n":"UNITED COLO GmbH / NGZ-Server.de Coburg","op":"UNITED COLO GmbH / NGZ-Server.de","address":"Sonntagsanger 1","city":"Coburg","country":"DE","clli":null,"tier":null,"src":"peeringdb"},"geometry":{"type":"Point","coordinates":[10.95877,50.254995]}},{"type":"Feature","properties":{"id":"peeringdb-243","n":"Pulsant Newcastle NE-1 (Central)","op":"Pulsant","address":"5 Bridge View","city":"Newcastle upon Tyne","country":"GB","clli":null,"tier":null,"src":"peeringdb"},"geometry":{"type":"Point","coordinates":[-1.603213,54.972886]}},{"type":"Feature","properties":{"id":"peeringdb-245","n":"InterDC Doetinchem","op":"InterRacks","address":"1 Gildenbroederslaan","city":"Doetinchem","country":"NL","clli":null,"tier":null,"src":"peeringdb"},"geometry":{"type":"Point","coordinates":[6.300252,51.954184]}},{"type":"Feature","properties":{"id":"peeringdb-246","n":"Looking Glass Networks NYC Node","op":"Looking Glass Networks","address":"150 Varick Street","city":"New York","country":"US","clli":"NYCMNY","tier":null,"src":"peeringdb"},"geometry":{"type":"Point","coordinates":[-74.00536,40.726019]}},{"type":"Feature","properties":{"id":"peeringdb-248","n":"Level(3) London (Braham Street)","op":"Lumen Technologies Inc","address":"6 Braham St","city":"London","country":"GB","clli":"LONDEN","tier":null,"src":"peeringdb"},"geometry":{"type":"Point","coordinates":[-0.0725,51.513915]}},{"type":"Feature","properties":{"id":"peeringdb-249","n":"Level(3) Atlanta (Courtland)","op":"Lumen Technologies Inc","address":"345 Courtland St Ne","city":"Atlanta","country":"US","clli":null,"tier":null,"src":"peeringdb"},"geometry":{"type":"Point","coordinates":[-84.383731,33.765138]}},{"type":"Feature","properties":{"id":"peeringdb-250","n":"Level(3) Chicago (Canal)","op":"Lumen Technologies Inc","address":"111 Canal, Suite 200","city":"Chicago","country":"US","clli":null,"tier":null,"src":"peeringdb"},"geometry":{"type":"Point","coordinates":[-87.639611,41.880436]}},{"type":"Feature","properties":{"id":"peeringdb-252","n":"Cogent Montpellier","op":"Cogent Communications, Inc.","address":"189 place du 56e Régiment d'Artillerie","city":"Montpellier","country":"FR","clli":null,"tier":null,"src":"peeringdb"},"geometry":{"type":"Point","coordinates":[3.887893,43.60956]}},{"type":"Feature","properties":{"id":"peeringdb-254","n":"Redcentric London Data Centre","op":"Redcentric PLC","address":"80 Clifton Street","city":"London","country":"GB","clli":"LONDEN","tier":null,"src":"peeringdb"},"geometry":{"type":"Point","coordinates":[-0.082993,51.522955]}},{"type":"Feature","properties":{"id":"peeringdb-256","n":"ServerCondo-219 Albuquerque","op":"IXNM, INC.","address":"219 Central Ave NW","city":"Albuquerque","country":"US","clli":null,"tier":null,"src":"peeringdb"},"geometry":{"type":"Point","coordinates":[-106.650102,35.084663]}},{"type":"Feature","properties":{"id":"peeringdb-258","n":"STOKAB KN3, Kista","op":"AB Stokab","address":"Borgafjordsgatan 15","city":"Stockholm","country":"SE","clli":null,"tier":null,"src":"peeringdb"},"geometry":{"type":"Point","coordinates":[17.943347,59.405682]}},{"type":"Feature","properties":{"id":"peeringdb-259","n":"MCI Stockholm (Kista)","op":"Verizon Communications, Inc.","address":"Torshamnsgatan 27","city":"Stockholm","country":"SE","clli":null,"tier":null,"src":"peeringdb"},"geometry":{"type":"Point","coordinates":[17.953487,59.406342]}},{"type":"Feature","properties":{"id":"peeringdb-260","n":"VIVI Vienna (Wien)","op":"KAPPER NETWORK-COMMUNICATIONS GmbH","address":"Liebiggasse 9","city":"Vienna","country":"AT","clli":null,"tier":null,"src":"peeringdb"},"geometry":{"type":"Point","coordinates":[16.356475,48.213465]}},{"type":"Feature","properties":{"id":"peeringdb-261","n":"Lumen Duesseldorf","op":"Colt Technology Services Group","address":"In der Steele 35","city":"Düsseldorf","country":"DE","clli":"DSDFGEAK","tier":null,"src":"peeringdb"},"geometry":{"type":"Point","coordinates":[6.86597,51.18875]}},{"type":"Feature","properties":{"id":"peeringdb-262","n":"NorthC Amsterdam 2","op":"NorthC Datacenters","address":"Stekkenbergweg 4","city":"Amsterdam","country":"NL","clli":"AMSTNL","tier":null,"src":"peeringdb"},"geometry":{"type":"Point","coordinates":[4.94859,52.29643]}},{"type":"Feature","properties":{"id":"peeringdb-264","n":"Cogent Nice","op":"Cogent Communications, Inc.","address":"16 Avenue Thiers","city":"Nice","country":"FR","clli":null,"tier":null,"src":"peeringdb"},"geometry":{"type":"Point","coordinates":[7.259722,43.70338]}},{"type":"Feature","properties":{"id":"peeringdb-265","n":"Cogent Antibes","op":"Cogent Communications, Inc.","address":"282 route des Cistes","city":"Antibes","country":"FR","clli":null,"tier":null,"src":"peeringdb"},"geometry":{"type":"Point","coordinates":[7.073109,43.609448]}},{"type":"Feature","properties":{"id":"peeringdb-266","n":"Cogent Toulouse","op":"Cogent Communications, Inc.","address":"125bis ch du Sang de Serp","city":"Toulouse","country":"FR","clli":null,"tier":null,"src":"peeringdb"},"geometry":{"type":"Point","coordinates":[1.423103,43.620447]}},{"type":"Feature","properties":{"id":"peeringdb-267","n":"Citynet Columbus","op":"Citynet","address":"251 Neilston St.","city":"Columbus","country":"US","clli":"CLMCOH","tier":null,"src":"peeringdb"},"geometry":{"type":"Point","coordinates":[-82.994861,39.968171]}},{"type":"Feature","properties":{"id":"peeringdb-268","n":"Citynet Pittsburgh","op":"Citynet","address":"Allegheny Center Mall","city":"Pittsburgh","country":"US","clli":"PITBPA","tier":null,"src":"peeringdb"},"geometry":{"type":"Point","coordinates":[-80.003614,40.447383]}},{"type":"Feature","properties":{"id":"peeringdb-269","n":"BUCH-Facility Bucharest","op":"IPSERV","address":"23-25 Nerva Traian","city":"Bucharest","country":"RO","clli":null,"tier":null,"src":"peeringdb"},"geometry":{"type":"Point","coordinates":[26.115913,44.419772]}},{"type":"Feature","properties":{"id":"peeringdb-271","n":"Pulsant Edinburgh SC-1 (South Gyle)","op":"Pulsant","address":"The Clocktower Estate, Flassches Yard","city":"Edinburgh","country":"GB","clli":null,"tier":null,"src":"peeringdb"},"geometry":{"type":"Point","coordinates":[-3.295901,55.930562]}},{"type":"Feature","properties":{"id":"peeringdb-273","n":"Citynet Indianapolis","op":"Citynet","address":"701 W. Henry St.","city":"Indianapolis","country":"US","clli":"iplswn","tier":null,"src":"peeringdb"},"geometry":{"type":"Point","coordinates":[-86.170711,39.759534]}},{"type":"Feature","properties":{"id":"peeringdb-274","n":"WIIT Datacenter DUS1, DUS2, DUS3, DUS4, DUS6, DUS7","op":"WIIT Group (IT, DE, CH)","address":"Am Gatherhof 44","city":"Düsseldorf","country":"DE","clli":null,"tier":null,"src":"peeringdb"},"geometry":{"type":"Point","coordinates":[6.81752,51.267301]}},{"type":"Feature","properties":{"id":"peeringdb-275","n":"PTOR1","op":"1547 Critical Systems Realty","address":"921 SW Washington St","city":"Portland","country":"US","clli":"PTLDORPB","tier":null,"src":"peeringdb"},"geometry":{"type":"Point","coordinates":[-122.680792,45.521366]}},{"type":"Feature","properties":{"id":"peeringdb-277","n":"NTT Frankfurt 1 Data Center (FRA1)","op":"NTT DATA's Global Data Centers division","address":"Eschborner Landstrasse 100","city":"Frankfurt","country":"DE","clli":"FRNKGE","tier":null,"src":"peeringdb"},"geometry":{"type":"Point","coordinates":[8.601436,50.128192]}},{"type":"Feature","properties":{"id":"peeringdb-278","n":"Mobistar Nossegem fka Versatel Nossegem","op":"Mobistar Enterprise Services NV","address":"Leuvensesteenweg 641","city":"Nossegem","country":"BE","clli":null,"tier":null,"src":"peeringdb"},"geometry":{"type":"Point","coordinates":[4.503638,50.877572]}},{"type":"Feature","properties":{"id":"peeringdb-279","n":"Centersquare New Jersey (EWR5)","op":"Centersquare","address":"15 Enterprise Avenue N","city":"Secaucus","country":"US","clli":"SCCSNJEM","tier":null,"src":"peeringdb"},"geometry":{"type":"Point","coordinates":[-74.06912,40.78616]}},{"type":"Feature","properties":{"id":"peeringdb-280","n":"Eircom Dublin (Citywest)","op":"eircom Ltd","address":"Unit 4050, Kingswood Avenue","city":"Dublin","country":"IE","clli":null,"tier":null,"src":"peeringdb"},"geometry":{"type":"Point","coordinates":[-6.415382,53.296287]}},{"type":"Feature","properties":{"id":"peeringdb-281","n":"Equinix BO1 - Boston, Waltham","op":"Equinix, Inc.","address":"74 West Street","city":"Waltham","country":"US","clli":null,"tier":null,"src":"peeringdb"},"geometry":{"type":"Point","coordinates":[-71.269187,42.395346]}},{"type":"Feature","properties":{"id":"peeringdb-282","n":"Equinix SG1 - Singapore","op":"Equinix, Inc.","address":"20 Ayer Rajah Crescent","city":"Singapore","country":"SG","clli":null,"tier":null,"src":"peeringdb"},"geometry":{"type":"Point","coordinates":[103.789842,1.295229]}},{"type":"Feature","properties":{"id":"peeringdb-283","n":"365 Data Centers Chicago (CH6)","op":"365 Data Centers","address":"427 S. La Salle","city":"Chicago","country":"US","clli":null,"tier":null,"src":"peeringdb"},"geometry":{"type":"Point","coordinates":[-87.631453,41.876212]}},{"type":"Feature","properties":{"id":"peeringdb-284","n":"MCI/Verizon Brussels (Diegem) E","op":"Verizon Communications, Inc.","address":"Culliganlaan 2e","city":"Machelen","country":"BE","clli":null,"tier":null,"src":"peeringdb"},"geometry":{"type":"Point","coordinates":[4.450532,50.885261]}},{"type":"Feature","properties":{"id":"peeringdb-286","n":"CoreSite - Washington,DC (DC1)","op":"CoreSite","address":"1275 K Street, NW","city":"Washington","country":"US","clli":"WASHDC12","tier":null,"src":"peeringdb"},"geometry":{"type":"Point","coordinates":[-77.029149,38.902918]}},{"type":"Feature","properties":{"id":"peeringdb-290","n":"aixit Frankfurt","op":"aixit GmbH","address":"Rebstöcker Straße 55","city":"Frankfurt","country":"DE","clli":"FRNKGE","tier":null,"src":"peeringdb"},"geometry":{"type":"Point","coordinates":[8.629585,50.1009]}},{"type":"Feature","properties":{"id":"peeringdb-291","n":"NewColo Frankfurt","op":"NewColo","address":"Mainzer Landstrasse 351-353","city":"Frankfurt","country":"DE","clli":"FRNKGE","tier":null,"src":"peeringdb"},"geometry":{"type":"Point","coordinates":[8.63429,50.101713]}},{"type":"Feature","properties":{"id":"peeringdb-293","n":"Evocative SJC3","op":"VPLS","address":"3080 Raymond Street","city":"Santa Clara","country":"US","clli":null,"tier":null,"src":"peeringdb"},"geometry":{"type":"Point","coordinates":[-121.954136,37.378042]}},{"type":"Feature","properties":{"id":"peeringdb-294","n":"ITGate PdF (TRN1/TRN2)","op":"IT.Gate","address":"Corso Svizzera 185","city":"Turin","country":"IT","clli":"TORIIT","tier":null,"src":"peeringdb"},"geometry":{"type":"Point","coordinates":[7.660825,45.090688]}},{"type":"Feature","properties":{"id":"peeringdb-295","n":"AtlasEdge DC Brussels BRU001","op":"AtlasEdge","address":"Mercuriusstraat 30, Nossegem","city":"Brussels","country":"BE","clli":null,"tier":null,"src":"peeringdb"},"geometry":{"type":"Point","coordinates":[4.503629,50.872026]}},{"type":"Feature","properties":{"id":"peeringdb-299","n":"Global Crossing Joop","op":"Colt Technology Services Group","address":"Geesinkweeg 401 404,1096","city":"Amsterdam","country":"NL","clli":"AMSTNL","tier":null,"src":"peeringdb"},"geometry":{"type":"Point","coordinates":[4.933657,52.33538]}},{"type":"Feature","properties":{"id":"peeringdb-300","n":"BIX Building (Victor Hugo street)","op":"Budapesti Ingatlan Hasznosítási és Fejlesztési Nyrt.","address":"Victor Hugo utca 18-22.","city":"Budapest","country":"HU","clli":null,"tier":null,"src":"peeringdb"},"geometry":{"type":"Point","coordinates":[19.055712,47.51796]}},{"type":"Feature","properties":{"id":"peeringdb-301","n":"Dataplex Budapest","op":"T-Systems Magyarország Zrt.","address":"Asztalos Sandor utca 13.","city":"Budapest","country":"HU","clli":null,"tier":null,"src":"peeringdb"},"geometry":{"type":"Point","coordinates":[19.107458,47.448989]}},{"type":"Feature","properties":{"id":"peeringdb-304","n":"Signet DC1","op":"Signet B.V.","address":"Science Park Eindhoven 5218","city":"Son","country":"NL","clli":null,"tier":null,"src":"peeringdb"},"geometry":{"type":"Point","coordinates":[5.460509,51.501281]}},{"type":"Feature","properties":{"id":"peeringdb-305","n":"iomart DC1 Glasgow","op":"iomart Hosting Limited","address":"88 Middlesex Street","city":"Glasgow","country":"GB","clli":null,"tier":null,"src":"peeringdb"},"geometry":{"type":"Point","coordinates":[-4.283217,55.851165]}},{"type":"Feature","properties":{"id":"peeringdb-306","n":"Equinix PA2 - Paris, Saint-Denis","op":"Equinix, Inc.","address":"Rue Ambroise Croizat, 114","city":"Paris","country":"FR","clli":"PARSFR","tier":null,"src":"peeringdb"},"geometry":{"type":"Point","coordinates":[2.350664,48.927166]}},{"type":"Feature","properties":{"id":"peeringdb-311","n":"Level(3) Nashville (Sidco Drive)","op":"Lumen Technologies Inc","address":"2992 Sidco Drive","city":"Nashville","country":"US","clli":null,"tier":null,"src":"peeringdb"},"geometry":{"type":"Point","coordinates":[-86.755786,36.102726]}},{"type":"Feature","properties":{"id":"peeringdb-312","n":"IRIS - Nashville","op":"IRIS","address":"211 Commerce Street","city":"Nashville","country":"US","clli":null,"tier":null,"src":"peeringdb"},"geometry":{"type":"Point","coordinates":[-86.776316,36.162621]}},{"type":"Feature","properties":{"id":"peeringdb-314","n":"Cincinnatti Bell - West 7th Street","op":"Cincinnatti Bell","address":"209 West 7 Street","city":"Cincinnati","country":"US","clli":null,"tier":null,"src":"peeringdb"},"geometry":{"type":"Point","coordinates":[-84.517261,39.102789]}},{"type":"Feature","properties":{"id":"peeringdb-315","n":"Level(3) Cincinnati","op":"Lumen Technologies Inc","address":"400 Pike Street","city":"Cincinnati","country":"US","clli":null,"tier":null,"src":"peeringdb"},"geometry":{"type":"Point","coordinates":[-84.50313,39.102533]}},{"type":"Feature","properties":{"id":"peeringdb-316","n":"Neutral Data Toronto","op":"Neutral Data Centers Corp.","address":"151 Front St. W.","city":"Toronto","country":"CA","clli":"TOROON","tier":null,"src":"peeringdb"},"geometry":{"type":"Point","coordinates":[-79.384228,43.644632]}},{"type":"Feature","properties":{"id":"peeringdb-317","n":"Telehouse - Los Angeles","op":"Telehouse - Global Data Centers","address":"626 Wilshire Blvd #600","city":"Los Angeles","country":"US","clli":"LSANCA","tier":null,"src":"peeringdb"},"geometry":{"type":"Point","coordinates":[-118.256985,34.048275]}},{"type":"Feature","properties":{"id":"peeringdb-328","n":"BTC Core Network Sofia","op":"Vivacom Bulgaria EAD","address":"Gurko 4","city":"Sofia","country":"BG","clli":null,"tier":null,"src":"peeringdb"},"geometry":{"type":"Point","coordinates":[23.32401,42.693819]}},{"type":"Feature","properties":{"id":"peeringdb-330","n":"Newport Financial Center","op":"Lefrak Organization","address":"111 Pavonia Ave.","city":"Jersey City","country":"US","clli":null,"tier":null,"src":"peeringdb"},"geometry":{"type":"Point","coordinates":[-74.033401,40.726597]}},{"type":"Feature","properties":{"id":"peeringdb-331","n":"NorthC Berlin","op":"NorthC Deutschland GmbH","address":"Gradestrasse 60","city":"Berlin","country":"DE","clli":null,"tier":null,"src":"peeringdb"},"geometry":{"type":"Point","coordinates":[13.428412,52.452868]}},{"type":"Feature","properties":{"id":"peeringdb-332","n":"Netrality St. Louis - 900 Walnut","op":"Netrality Data Centers","address":"900 Walnut - Netrality Data Center Meet Me Room","city":"St. Louis","country":"US","clli":null,"tier":null,"src":"peeringdb"},"geometry":{"type":"Point","coordinates":[-90.195238,38.625536]}},{"type":"Feature","properties":{"id":"peeringdb-333","n":"Equinix LA3/LA4 - Los Angeles, El Segundo","op":"Equinix, Inc.","address":"445 North Douglas Street","city":"El Segundo","country":"US","clli":null,"tier":null,"src":"peeringdb"},"geometry":{"type":"Point","coordinates":[-118.383778,33.921239]}},{"type":"Feature","properties":{"id":"peeringdb-334","n":"Pulsant Maidenhead SE-2","op":"Pulsant","address":"BlueSquare House","city":"Maidenhead","country":"GB","clli":null,"tier":null,"src":"peeringdb"},"geometry":{"type":"Point","coordinates":[-0.708278,51.500351]}},{"type":"Feature","properties":{"id":"peeringdb-335","n":"The Bunker (Ash)","op":"The Bunker Secure Hosting Ltd","address":"Ash Radar Station","city":"Sandwich","country":"GB","clli":null,"tier":null,"src":"peeringdb"},"geometry":{"type":"Point","coordinates":[1.295809,51.271106]}},{"type":"Feature","properties":{"id":"peeringdb-336","n":"colozueri.ch Zurich","op":"NTS Colocation AG","address":"Badenerstrasse 569","city":"Zurich","country":"CH","clli":null,"tier":null,"src":"peeringdb"},"geometry":{"type":"Point","coordinates":[8.495621,47.38338]}},{"type":"Feature","properties":{"id":"peeringdb-340","n":"Biznet Jakarta","op":"Biznet Networks","address":"MidPlaza 2, 8th Floor. Jl. Jend. Sudirman 10-11","city":"Jakarta","country":"ID","clli":null,"tier":null,"src":"peeringdb"},"geometry":{"type":"Point","coordinates":[106.820607,-6.208937]}},{"type":"Feature","properties":{"id":"peeringdb-345","n":"OSL01 - Vaultica Data Centers","op":"Vaultica Data Centers - NORDICS","address":"Ulvenveien 89b","city":"Oslo","country":"NO","clli":null,"tier":null,"src":"peeringdb"},"geometry":{"type":"Point","coordinates":[10.810183,59.924726]}},{"type":"Feature","properties":{"id":"peeringdb-346","n":"Forskningsparken Oslo","op":"SSC Networks","address":"Gaustadalléen 21","city":"Oslo","country":"NO","clli":null,"tier":null,"src":"peeringdb"},"geometry":{"type":"Point","coordinates":[10.71639,59.942329]}},{"type":"Feature","properties":{"id":"peeringdb-347","n":"Level(3) Toronto","op":"Lumen Technologies Inc","address":"60 Garamond Court","city":"Toronto","country":"CA","clli":null,"tier":null,"src":"peeringdb"},"geometry":{"type":"Point","coordinates":[-79.332708,43.727326]}},{"type":"Feature","properties":{"id":"peeringdb-348","n":"Level(3) New York","op":"Lumen Technologies Inc","address":"85 10th Avenue","city":"New York","country":"US","clli":"NYCMNY","tier":null,"src":"peeringdb"},"geometry":{"type":"Point","coordinates":[-74.007652,40.743136]}},{"type":"Feature","properties":{"id":"peeringdb-349","n":"Linxdatacenter (Moscow)","op":"Linxdatacenter","address":"8 Marta 14","city":"Moscow","country":"RU","clli":null,"tier":null,"src":"peeringdb"},"geometry":{"type":"Point","coordinates":[37.551781,55.805323]}},{"type":"Feature","properties":{"id":"peeringdb-351","n":"Equinix DU1 - Dusseldorf","op":"Equinix, Inc.","address":"Albertstrasse 27","city":"Düsseldorf","country":"DE","clli":null,"tier":null,"src":"peeringdb"},"geometry":{"type":"Point","coordinates":[6.80715,51.219632]}},{"type":"Feature","properties":{"id":"peeringdb-352","n":"London Hosting Centre","op":"Telstra Europe","address":"City Reach, 6 Greenwich View Place","city":"London","country":"GB","clli":"LONDEN","tier":null,"src":"peeringdb"},"geometry":{"type":"Point","coordinates":[-0.018318,51.494644]}},{"type":"Feature","properties":{"id":"peeringdb-354","n":"Level(3) London (Goswell Road)","op":"Lumen Technologies Inc","address":"260-266 Goswell Road","city":"London","country":"GB","clli":"LONDEN","tier":null,"src":"peeringdb"},"geometry":{"type":"Point","coordinates":[-0.100964,51.528721]}},{"type":"Feature","properties":{"id":"peeringdb-356","n":"Crown Castle Brentwood (1650 Islip)","op":"Crown Castle Inc.","address":"1650 Islip Ave","city":"Brentwood","country":"US","clli":"BRWDNY","tier":null,"src":"peeringdb"},"geometry":{"type":"Point","coordinates":[-73.219864,40.784184]}},{"type":"Feature","properties":{"id":"peeringdb-357","n":"Versatel Berlin","op":"Versatel","address":"Gradestrasse 40","city":"Berlin","country":"DE","clli":null,"tier":null,"src":"peeringdb"},"geometry":{"type":"Point","coordinates":[13.430493,52.452542]}},{"type":"Feature","properties":{"id":"peeringdb-362","n":"710 Tucker St Louis","op":"Hostirian","address":"710 North Tucker","city":"St. Louis","country":"US","clli":null,"tier":null,"src":"peeringdb"},"geometry":{"type":"Point","coordinates":[-90.195813,38.632728]}},{"type":"Feature","properties":{"id":"peeringdb-363","n":"CoreSite - Los Angeles (LA2)","op":"CoreSite","address":"900 N. Alameda","city":"Los Angeles","country":"US","clli":"LSANCAVJ","tier":null,"src":"peeringdb"},"geometry":{"type":"Point","coordinates":[-118.235357,34.058096]}},{"type":"Feature","properties":{"id":"peeringdb-365","n":"NewTelco Kiev","op":"NewTelco Ukraine","address":"Gaidara 50","city":"Kyiv","country":"UA","clli":null,"tier":null,"src":"peeringdb"},"geometry":{"type":"Point","coordinates":[30.629527,50.551468]}},{"type":"Feature","properties":{"id":"peeringdb-367","n":"INTERNIC Frankfurt","op":"INTERNET AG Global Network","address":"Wiesenhüttenplatz 26","city":"Frankfurt","country":"DE","clli":null,"tier":null,"src":"peeringdb"},"geometry":{"type":"Point","coordinates":[8.666501,50.105084]}},{"type":"Feature","properties":{"id":"peeringdb-368","n":"XO Nashville","op":"XO","address":"101 Molloy Street","city":"Nashville","country":"US","clli":null,"tier":null,"src":"peeringdb"},"geometry":{"type":"Point","coordinates":[-86.772516,36.158837]}},{"type":"Feature","properties":{"id":"peeringdb-372","n":"Network 222","op":"Fiore Companies","address":"222 West Washington Avenue","city":"Madison","country":"US","clli":"MDSNWI","tier":null,"src":"peeringdb"},"geometry":{"type":"Point","coordinates":[-89.386996,43.073336]}},{"type":"Feature","properties":{"id":"peeringdb-374","n":"Iron Mountain Data Center - Amsterdam (AMS-1)","op":"Iron Mountain Data Centers","address":"J.W. Lucasweg 35","city":"Amsterdam","country":"NL","clli":null,"tier":null,"src":"peeringdb"},"geometry":{"type":"Point","coordinates":[4.665267,52.391165]}},{"type":"Feature","properties":{"id":"peeringdb-375","n":"Equinix AM1/AM2 - Amsterdam, Luttenbergweg","op":"Equinix, Inc.","address":"Luttenbergweg 4","city":"Amsterdam","country":"NL","clli":"AMSTNL","tier":null,"src":"peeringdb"},"geometry":{"type":"Point","coordinates":[4.943121,52.299929]}},{"type":"Feature","properties":{"id":"peeringdb-376","n":"Equinix ZW1 - Zwolle","op":"Equinix, Inc.","address":"Telfordstraat 3","city":"Zwolle","country":"NL","clli":null,"tier":null,"src":"peeringdb"},"geometry":{"type":"Point","coordinates":[6.142697,52.488492]}},{"type":"Feature","properties":{"id":"peeringdb-377","n":"DTS DataCenter Herford","op":"DTS Service GmbH","address":"Schrewestrasse  4-8","city":"Herford","country":"DE","clli":null,"tier":null,"src":"peeringdb"},"geometry":{"type":"Point","coordinates":[8.64637,52.12009]}},{"type":"Feature","properties":{"id":"peeringdb-378","n":"OCDC Orange County Datacenter Santa Ana","op":"VPLS","address":"1400 S. Grand","city":"Santa Ana","country":"US","clli":null,"tier":null,"src":"peeringdb"},"geometry":{"type":"Point","coordinates":[-117.851779,33.729872]}},{"type":"Feature","properties":{"id":"peeringdb-380","n":"iConnect Billings Fiber Hotel","op":"iConnect Montana","address":"Granite Tower","city":"Billings","country":"US","clli":null,"tier":null,"src":"peeringdb"},"geometry":{"type":"Point","coordinates":[-108.512522,45.781098]}},{"type":"Feature","properties":{"id":"peeringdb-381","n":"iConnect Missoula","op":"iConnect Montana","address":"Broadway Center","city":"Missoula","country":"US","clli":null,"tier":null,"src":"peeringdb"},"geometry":{"type":"Point","coordinates":[-113.989835,46.87101]}},{"type":"Feature","properties":{"id":"peeringdb-382","n":"TransACT Telehouse","op":"Vocus Group","address":"470 Northbourne Ave","city":"Canberra","country":"AU","clli":null,"tier":null,"src":"peeringdb"},"geometry":{"type":"Point","coordinates":[149.133934,-35.251849]}},{"type":"Feature","properties":{"id":"peeringdb-383","n":"Berget Boras","op":"Boras Energi/Nat AB","address":"Bockasjögatan 17","city":"Boras","country":"SE","clli":null,"tier":null,"src":"peeringdb"},"geometry":{"type":"Point","coordinates":[12.925524,57.71545]}},{"type":"Feature","properties":{"id":"peeringdb-386","n":"UltraEdge Montpellier","op":"UltraEdge","address":"488 avenue Villeneuve d'Angouleme","city":"Montpellier","country":"FR","clli":null,"tier":null,"src":"peeringdb"},"geometry":{"type":"Point","coordinates":[3.868353,43.596863]}},{"type":"Feature","properties":{"id":"peeringdb-388","n":"Global Switch Singapore","op":"Global Switch","address":"2 Tai Seng Avenue","city":"Singapore","country":"SG","clli":null,"tier":null,"src":"peeringdb"},"geometry":{"type":"Point","coordinates":[103.893828,1.336723]}},{"type":"Feature","properties":{"id":"peeringdb-389","n":"CoreSite - Denver (DE1)","op":"CoreSite","address":"910 15th Street","city":"Denver","country":"US","clli":"DNVRCO26","tier":null,"src":"peeringdb"},"geometry":{"type":"Point","coordinates":[-104.995636,39.745636]}},{"type":"Feature","properties":{"id":"peeringdb-390","n":"CSS MPS Moscow","op":"CSS MPS Moscow","address":"Kalanchevskaya str., 2/1","city":"Moscow","country":"RU","clli":null,"tier":null,"src":"peeringdb"},"geometry":{"type":"Point","coordinates":[37.652576,55.770625]}},{"type":"Feature","properties":{"id":"peeringdb-393","n":"HKCOLO - Sino Favour Centre","op":"HKCOLO - Sino Favour Centre","address":"8/F,  1 On Yip Street","city":"Hong Kong","country":"HK","clli":null,"tier":null,"src":"peeringdb"},"geometry":{"type":"Point","coordinates":[114.246038,22.266947]}},{"type":"Feature","properties":{"id":"peeringdb-394","n":"740 Notre-Dame West Montreal","op":"740 Notre-Dame West Montreal","address":"740 Notre-Dame West","city":"Montreal","country":"CA","clli":null,"tier":null,"src":"peeringdb"},"geometry":{"type":"Point","coordinates":[-73.560097,45.499333]}},{"type":"Feature","properties":{"id":"peeringdb-397","n":"WOW! Business (Tampa Datacenter)","op":"WideOpenWest Finance","address":"400 N Tampa St.","city":"Tampa","country":"US","clli":"TAMQFL","tier":null,"src":"peeringdb"},"geometry":{"type":"Point","coordinates":[-82.459331,27.947729]}},{"type":"Feature","properties":{"id":"peeringdb-398","n":"Equinix LD3 - London, Park Royal","op":"Equinix, Inc.","address":"Matrix Unit 11, 900 Coronation Road","city":"London","country":"GB","clli":"LONDEN","tier":null,"src":"peeringdb"},"geometry":{"type":"Point","coordinates":[-0.27746,51.528788]}},{"type":"Feature","properties":{"id":"peeringdb-399","n":"Equinix LD4 - London, Slough","op":"Equinix, Inc.","address":"2 Buckingham Avenue","city":"Slough","country":"GB","clli":"LONDEN","tier":null,"src":"peeringdb"},"geometry":{"type":"Point","coordinates":[-0.635545,51.523805]}},{"type":"Feature","properties":{"id":"peeringdb-402","n":"Digital Realty DFW (2323 Bryan St)","op":"Digital Realty","address":"2323 Bryan St.","city":"Dallas","country":"US","clli":"DLLSTX","tier":null,"src":"peeringdb"},"geometry":{"type":"Point","coordinates":[-96.794219,32.787212]}},{"type":"Feature","properties":{"id":"peeringdb-403","n":"Digital Realty LAX (600 W 7th)","op":"Digital Realty","address":"600 West 7th Street","city":"Los Angeles","country":"US","clli":"LSANCA","tier":null,"src":"peeringdb"},"geometry":{"type":"Point","coordinates":[-118.25745,34.047335]}},{"type":"Feature","properties":{"id":"peeringdb-406","n":"euNetworks Amsterdam","op":"euNetworks Group","address":"Paul van Vlissingenstraat 16","city":"Amsterdam","country":"NL","clli":null,"tier":null,"src":"peeringdb"},"geometry":{"type":"Point","coordinates":[4.919422,52.333407]}},{"type":"Feature","properties":{"id":"peeringdb-408","n":"Digital Realty IAD (44480 Hastings)","op":"Digital Realty","address":"44480 Hastings Drive","city":"Ashburn","country":"US","clli":"ASBNVA","tier":null,"src":"peeringdb"},"geometry":{"type":"Point","coordinates":[-77.462489,39.017808]}},{"type":"Feature","properties":{"id":"peeringdb-409","n":"Netrality Houston - 1301 Fannin","op":"Netrality Data Centers","address":"1301 Fannin - Netrality Data Center Meet Me Room","city":"Houston","country":"US","clli":null,"tier":null,"src":"peeringdb"},"geometry":{"type":"Point","coordinates":[-95.365882,29.753242]}},{"type":"Feature","properties":{"id":"peeringdb-410","n":"KOMO Plaza Seattle (Formerly Fisher Plaza)","op":"GI Property Management","address":"140 4th Ave N","city":"Seattle","country":"US","clli":"STTLWAJM","tier":null,"src":"peeringdb"},"geometry":{"type":"Point","coordinates":[-122.348278,47.619238]}},{"type":"Feature","properties":{"id":"peeringdb-411","n":"University of Wisconsin-Madison","op":"University of Wisconsin-Madison","address":"1210 W. Dayton Street","city":"Madison","country":"US","clli":"MDSNWI","tier":null,"src":"peeringdb"},"geometry":{"type":"Point","coordinates":[-89.406318,43.071309]}},{"type":"Feature","properties":{"id":"peeringdb-412","n":"MCI/Verizon Paris St Denis","op":"Verizon Communications, Inc.","address":"14 rue de la montjoie","city":"Paris","country":"FR","clli":null,"tier":null,"src":"peeringdb"},"geometry":{"type":"Point","coordinates":[2.363056,48.911058]}},{"type":"Feature","properties":{"id":"peeringdb-413","n":"Verizon HMG9 Oslo","op":"Verizon Communications, Inc.","address":"Hans Moller Gasmansvei 9","city":"Oslo","country":"NO","clli":null,"tier":null,"src":"peeringdb"},"geometry":{"type":"Point","coordinates":[10.834971,59.938433]}},{"type":"Feature","properties":{"id":"peeringdb-414","n":"190 Park Center Plaza San Jose","op":"TelePacific Communications","address":"190 Park Center Plaza","city":"San Jose","country":"US","clli":null,"tier":null,"src":"peeringdb"},"geometry":{"type":"Point","coordinates":[-121.892948,37.332218]}},{"type":"Feature","properties":{"id":"peeringdb-417","n":"Telia Copenhagen (Ørestad/OSD)","op":"Telia Company","address":"Metrovej 1","city":"København S","country":"DK","clli":null,"tier":null,"src":"peeringdb"},"geometry":{"type":"Point","coordinates":[12.578517,55.625745]}},{"type":"Feature","properties":{"id":"peeringdb-418","n":"TATA Communications Stratford","op":"TATA Communications Ltd","address":"78 - 102 The Broadway","city":"London","country":"GB","clli":null,"tier":null,"src":"peeringdb"},"geometry":{"type":"Point","coordinates":[0.002415,51.542392]}},{"type":"Feature","properties":{"id":"peeringdb-419","n":"Malmö/B","op":"National Post and Telecom Agency","address":"Limhamnsgårdens Allé 16","city":"Malmö","country":"SE","clli":null,"tier":null,"src":"peeringdb"},"geometry":{"type":"Point","coordinates":[12.935775,55.571236]}},{"type":"Feature","properties":{"id":"peeringdb-420","n":"The Franklin Exchange Tampa","op":"The Wilson Company","address":"655 N Franklin Street","city":"Tampa","country":"US","clli":null,"tier":null,"src":"peeringdb"},"geometry":{"type":"Point","coordinates":[-82.458393,27.949606]}},{"type":"Feature","properties":{"id":"peeringdb-421","n":"BIT-2","op":"BIT BV","address":"Galileilaan 19","city":"Ede","country":"NL","clli":null,"tier":null,"src":"peeringdb"},"geometry":{"type":"Point","coordinates":[5.623903,52.027212]}},{"type":"Feature","properties":{"id":"peeringdb-424","n":"TTC TELEPORT DC1","op":"TTC Teleport s.r.o.","address":"Tiskarska 10","city":"Prague","country":"CZ","clli":null,"tier":null,"src":"peeringdb"},"geometry":{"type":"Point","coordinates":[14.53335,50.082018]}},{"type":"Feature","properties":{"id":"peeringdb-425","n":"Academia Sinica Department of Information Technology Services (ITS) Taipei","op":"Academia Sinica Department of Information Technology Services (ITS)","address":"Department of Information Technology Services","city":"Taipei","country":"TW","clli":null,"tier":null,"src":"peeringdb"},"geometry":{"type":"Point","coordinates":[121.614548,25.042185]}},{"type":"Feature","properties":{"id":"peeringdb-426","n":"QTS Groningen (GRO1)","op":"QTS Realty Trust, Inc.","address":"Zernikelaan 16","city":"Groningen","country":"NL","clli":null,"tier":null,"src":"peeringdb"},"geometry":{"type":"Point","coordinates":[6.52852,53.246048]}},{"type":"Feature","properties":{"id":"peeringdb-427","n":"NorthC Hamburg","op":"NorthC Deutschland GmbH","address":"Süderstrasse 198","city":"Hamburg","country":"DE","clli":null,"tier":null,"src":"peeringdb"},"geometry":{"type":"Point","coordinates":[10.04365,53.54799]}},{"type":"Feature","properties":{"id":"peeringdb-429","n":"Pixelpark GmbH Colo II Berlin","op":"Digitas Pixelpark GmbH","address":"Lützowstrasse 105/106","city":"Berlin","country":"DE","clli":null,"tier":null,"src":"peeringdb"},"geometry":{"type":"Point","coordinates":[13.36945,52.50192]}},{"type":"Feature","properties":{"id":"peeringdb-430","n":"Level(3) Oakland","op":"Lumen Technologies Inc","address":"5000 Hollis Ave","city":"Emeryville","country":"US","clli":null,"tier":null,"src":"peeringdb"},"geometry":{"type":"Point","coordinates":[-122.286597,37.834675]}},{"type":"Feature","properties":{"id":"peeringdb-434","n":"Gothnet DC Marieholm","op":"Göteborg Energi","address":"Slakthusgatan 5D","city":"Gothenburg","country":"SE","clli":null,"tier":null,"src":"peeringdb"},"geometry":{"type":"Point","coordinates":[12.002845,57.731137]}},{"type":"Feature","properties":{"id":"peeringdb-435","n":"Netrality Kansas City - 1102 Grand","op":"Netrality Data Centers","address":"1102 Grand - Netrality Data Center Meet Me Room","city":"Kansas City","country":"US","clli":null,"tier":null,"src":"peeringdb"},"geometry":{"type":"Point","coordinates":[-94.581036,39.100941]}},{"type":"Feature","properties":{"id":"peeringdb-436","n":"Equinix SV3 - Silicon Valley, San Jose","op":"Equinix, Inc.","address":"1735 Lundy Ave","city":"San Jose","country":"US","clli":null,"tier":null,"src":"peeringdb"},"geometry":{"type":"Point","coordinates":[-121.888457,37.388235]}},{"type":"Feature","properties":{"id":"peeringdb-437","n":"Equinix SV2 - Silicon Valley, Santa Clara","op":"Equinix, Inc.","address":"1350 Duane Ave","city":"Santa Clara","country":"US","clli":null,"tier":null,"src":"peeringdb"},"geometry":{"type":"Point","coordinates":[-121.954945,37.378463]}},{"type":"Feature","properties":{"id":"peeringdb-439","n":"NXDATA-1 Bucharest (BUH1)","op":"NXDATA","address":"8 Bulevardul Dimitrie Pompeiu","city":"Bucharest","country":"RO","clli":"BUCHRO","tier":null,"src":"peeringdb"},"geometry":{"type":"Point","coordinates":[26.120789,44.481916]}},{"type":"Feature","properties":{"id":"peeringdb-441","n":"Databarn Amsterdam","op":"Databarn","address":"Zekeringstraat 35","city":"Amsterdam","country":"NL","clli":null,"tier":null,"src":"peeringdb"},"geometry":{"type":"Point","coordinates":[4.851132,52.396443]}},{"type":"Feature","properties":{"id":"peeringdb-442","n":"GrafiX Internet B.V. - Capelle","op":"GrafiX Internet B.V.","address":"Stationsplein 20","city":"Capelle aan den IJssel","country":"NL","clli":null,"tier":null,"src":"peeringdb"},"geometry":{"type":"Point","coordinates":[4.585041,51.953828]}},{"type":"Feature","properties":{"id":"peeringdb-444","n":"noris network datacenter.de NBG3 / NBG4","op":"noris network AG","address":"Deutschherrnstraße 15-19","city":"Nuremberg","country":"DE","clli":null,"tier":null,"src":"peeringdb"},"geometry":{"type":"Point","coordinates":[11.06364,49.45341]}},{"type":"Feature","properties":{"id":"peeringdb-446","n":"LightBound IND1","op":"LightBound","address":"731 West Henry St","city":"Indianapolis","country":"US","clli":"IPLXINIF","tier":null,"src":"peeringdb"},"geometry":{"type":"Point","coordinates":[-86.171857,39.759366]}},{"type":"Feature","properties":{"id":"peeringdb-448","n":"CSSNW Bellingham","op":"CSS Communications","address":"1911 C Street","city":"Bellingham","country":"US","clli":"BLHMWA03","tier":null,"src":"peeringdb"},"geometry":{"type":"Point","coordinates":[-122.4805,48.757306]}},{"type":"Feature","properties":{"id":"peeringdb-449","n":"CERN Geneva","op":"CERN","address":"1, Esplanade des Particules","city":"Meyrin","country":"CH","clli":null,"tier":null,"src":"peeringdb"},"geometry":{"type":"Point","coordinates":[6.055572,46.232973]}},{"type":"Feature","properties":{"id":"peeringdb-452","n":"Equinix TY2 - Tokyo","op":"Equinix, Inc.","address":"3-8-21 Higashi-Shinagawa","city":"Tokyo","country":"JP","clli":null,"tier":null,"src":"peeringdb"},"geometry":{"type":"Point","coordinates":[139.748106,35.617432]}},{"type":"Feature","properties":{"id":"peeringdb-455","n":"R-KOM Datacenter","op":"R-KOM GmbH","address":"Straubinger Strasse 48","city":"Regensburg","country":"DE","clli":null,"tier":null,"src":"peeringdb"},"geometry":{"type":"Point","coordinates":[12.148083,49.013454]}},{"type":"Feature","properties":{"id":"peeringdb-456","n":"Chief LY Building Taipei","op":"Chief Telecom Inc.","address":"No. 250, Yang-Guang Street, Nei-hu District","city":"Taipei","country":"TW","clli":null,"tier":null,"src":"peeringdb"},"geometry":{"type":"Point","coordinates":[121.577519,25.073467]}},{"type":"Feature","properties":{"id":"peeringdb-457","n":"Equinix FR2 - Frankfurt, North","op":"Equinix, Inc.","address":"Kruppstrasse 121-127","city":"Frankfurt","country":"DE","clli":"FRNKGE","tier":null,"src":"peeringdb"},"geometry":{"type":"Point","coordinates":[8.741764,50.141895]}},{"type":"Feature","properties":{"id":"peeringdb-458","n":"FCCN Lisbon - SE03","op":"National Laboratory of Civil Engineering (LNEC)","address":"Avenida do Brasil, 101","city":"Lisbon","country":"PT","clli":null,"tier":null,"src":"peeringdb"},"geometry":{"type":"Point","coordinates":[-9.146581,38.756444]}},{"type":"Feature","properties":{"id":"peeringdb-460","n":"AIMS Kuala Lumpur","op":"AIMS Data Centre Sdn Bhd","address":"Ground Floor, Menara AIMS","city":"Kuala Lumpur","country":"MY","clli":null,"tier":null,"src":"peeringdb"},"geometry":{"type":"Point","coordinates":[101.70634,3.14969]}},{"type":"Feature","properties":{"id":"peeringdb-462","n":"LIM Warsaw","op":"LIM CENTER Spółka z ograniczoną odpowiedzialnością","address":"Al. Jerozolimskie 65/79","city":"Warsaw","country":"PL","clli":null,"tier":null,"src":"peeringdb"},"geometry":{"type":"Point","coordinates":[21.005015,52.227718]}},{"type":"Feature","properties":{"id":"peeringdb-463","n":"Telia Stockholm STK2","op":"Telia Company","address":"Solnavaegen 94","city":"Solna","country":"SE","clli":null,"tier":null,"src":"peeringdb"},"geometry":{"type":"Point","coordinates":[17.998905,59.362546]}},{"type":"Feature","properties":{"id":"peeringdb-464","n":"euNetworks Colocation Berlin","op":"euNetworks Group","address":"Alboinstrasse 36-42","city":"Berlin","country":"DE","clli":null,"tier":null,"src":"peeringdb"},"geometry":{"type":"Point","coordinates":[13.36937,52.46566]}},{"type":"Feature","properties":{"id":"peeringdb-465","n":"Sitel Bratislava","op":"Sitel","address":"Kopčianska 20/c","city":"Bratislava","country":"SK","clli":null,"tier":null,"src":"peeringdb"},"geometry":{"type":"Point","coordinates":[17.095572,48.118746]}},{"type":"Feature","properties":{"id":"peeringdb-468","n":"Digital Realty OAK (720 2nd St)","op":"Digital Realty","address":"720 2nd St","city":"Oakland","country":"US","clli":null,"tier":null,"src":"peeringdb"},"geometry":{"type":"Point","coordinates":[-122.282507,37.799021]}},{"type":"Feature","properties":{"id":"peeringdb-469","n":"Digital Realty SJC (2820 NW Pkwy)","op":"Digital Realty","address":"2820 Northwestern Pkwy","city":"Santa Clara","country":"US","clli":null,"tier":null,"src":"peeringdb"},"geometry":{"type":"Point","coordinates":[-121.973377,37.372818]}},{"type":"Feature","properties":{"id":"peeringdb-472","n":"Hanover Building Calgary","op":"N/A","address":"101 6th Avenue South West","city":"Calgary","country":"CA","clli":null,"tier":null,"src":"peeringdb"},"geometry":{"type":"Point","coordinates":[-114.063506,51.04716]}},{"type":"Feature","properties":{"id":"peeringdb-474","n":"GAP Union Station","op":"Global Access Point","address":"506 W South St.","city":"South Bend","country":"US","clli":null,"tier":null,"src":"peeringdb"},"geometry":{"type":"Point","coordinates":[-86.255805,41.669526]}},{"type":"Feature","properties":{"id":"peeringdb-475","n":"Singapore - Science Park II","op":"Singapore - Science Park II","address":"51 Science Park Rd","city":"Singapore","country":"SG","clli":null,"tier":null,"src":"peeringdb"},"geometry":{"type":"Point","coordinates":[103.783168,1.287528]}},{"type":"Feature","properties":{"id":"peeringdb-476","n":"360 Spear","op":"Prudential Financial, Inc.","address":"360 Spear St.","city":"San Francisco","country":"US","clli":null,"tier":null,"src":"peeringdb"},"geometry":{"type":"Point","coordinates":[-122.390267,37.788931]}},{"type":"Feature","properties":{"id":"peeringdb-477","n":"Nepustil Stuttgart Zettachring 10a","op":"Dr.-Ing. Nepustil & Co. GmbH","address":"Zettachring 10a","city":"Stuttgart","country":"DE","clli":null,"tier":null,"src":"peeringdb"},"geometry":{"type":"Point","coordinates":[9.17098,48.70899]}},{"type":"Feature","properties":{"id":"peeringdb-478","n":"NTT Berlin 1 Data Center (BER1)","op":"NTT DATA's Global Data Centers division","address":"Nonnendammallee 15","city":"Berlin","country":"DE","clli":null,"tier":null,"src":"peeringdb"},"geometry":{"type":"Point","coordinates":[13.237136,52.538479]}},{"type":"Feature","properties":{"id":"peeringdb-480","n":"Equinix MU1/MU3 - Munich","op":"Equinix, Inc.","address":"Seidlstrasse 3","city":"Munich","country":"DE","clli":null,"tier":null,"src":"peeringdb"},"geometry":{"type":"Point","coordinates":[11.55584,48.143056]}},{"type":"Feature","properties":{"id":"peeringdb-483","n":"ICT Center Vaduz","op":"ICT Center Vaduz","address":"Schwefelstrase 5a","city":"Vaduz","country":"LI","clli":null,"tier":null,"src":"peeringdb"},"geometry":{"type":"Point","coordinates":[9.524799,47.129934]}},{"type":"Feature","properties":{"id":"peeringdb-484","n":"Malmö Västergatan 4 / Stortorget","op":"Stena Fastigheter","address":"Västergatan 4","city":"Malmö","country":"SE","clli":null,"tier":null,"src":"peeringdb"},"geometry":{"type":"Point","coordinates":[12.998449,55.606818]}},{"type":"Feature","properties":{"id":"peeringdb-485","n":"Carolina Internet / CaroNet","op":"CaroNet","address":"900 Center Park Drive","city":"Charlotte","country":"US","clli":null,"tier":null,"src":"peeringdb"},"geometry":{"type":"Point","coordinates":[-80.925975,35.173324]}},{"type":"Feature","properties":{"id":"peeringdb-488","n":"Ucomline Kiev","op":"Ucomline (Digital Generation)","address":"Leontovicha 9","city":"Kyiv","country":"UA","clli":null,"tier":null,"src":"peeringdb"},"geometry":{"type":"Point","coordinates":[30.510193,50.445102]}},{"type":"Feature","properties":{"id":"peeringdb-489","n":"Moscow M10","op":"ROSTELECOM","address":"Suschevskiy val 26","city":"Moscow","country":"RU","clli":null,"tier":null,"src":"peeringdb"},"geometry":{"type":"Point","coordinates":[37.607766,55.792351]}},{"type":"Feature","properties":{"id":"peeringdb-490","n":"Moscow CSS MPS","op":"OAO Russian Railways","address":"Kalanchevskaya ul. 2","city":"Moscow","country":"RU","clli":null,"tier":null,"src":"peeringdb"},"geometry":{"type":"Point","coordinates":[37.652226,55.771098]}},{"type":"Feature","properties":{"id":"peeringdb-493","n":"Datagroup Kiev","op":"Datagroup JSC","address":"str. Simyi Brodskykh, 31/33","city":"Kyiv","country":"UA","clli":null,"tier":null,"src":"peeringdb"},"geometry":{"type":"Point","coordinates":[30.44867,50.45131]}},{"type":"Feature","properties":{"id":"peeringdb-494","n":"Digital Realty Amsterdam AMS18","op":"Digital Realty","address":"Amstel Business Park","city":"Amsterdam","country":"NL","clli":null,"tier":null,"src":"peeringdb"},"geometry":{"type":"Point","coordinates":[4.923265,52.332165]}},{"type":"Feature","properties":{"id":"peeringdb-495","n":"euNetworks (Global Voice)","op":"euNetworks Group","address":"Unit 4033, Citywest Avenue","city":"Dublin","country":"IE","clli":null,"tier":null,"src":"peeringdb"},"geometry":{"type":"Point","coordinates":[-6.416232,53.291549]}},{"type":"Feature","properties":{"id":"peeringdb-496","n":"SOCO Datacenter","op":"SOCO Network Solutions GmbH","address":"Nordstrasse 102","city":"Dueren","country":"DE","clli":null,"tier":null,"src":"peeringdb"},"geometry":{"type":"Point","coordinates":[6.457331,50.82885]}},{"type":"Feature","properties":{"id":"peeringdb-497","n":"GrafiX Internet B.V. - Alphen","op":"GrafiX Internet B.V.","address":"Handelsweg 8","city":"Alphen aan den Rijn","country":"NL","clli":null,"tier":null,"src":"peeringdb"},"geometry":{"type":"Point","coordinates":[4.640164,52.131092]}},{"type":"Feature","properties":{"id":"peeringdb-498","n":"Digital Realty Paris PAR3","op":"Digital Realty","address":"7-9 Avenue des Arts et Métiers","city":"Paris","country":"FR","clli":null,"tier":null,"src":"peeringdb"},"geometry":{"type":"Point","coordinates":[2.362398,48.914726]}},{"type":"Feature","properties":{"id":"peeringdb-500","n":"TierPoint Spokane","op":"TierPoint, LLC","address":"23403 E Mission Ave","city":"Liberty Lake","country":"US","clli":null,"tier":null,"src":"peeringdb"},"geometry":{"type":"Point","coordinates":[-117.09123,47.671879]}},{"type":"Feature","properties":{"id":"peeringdb-501","n":"US Bank Building","op":"Kiemle & Hagood","address":"428 West Riverside","city":"Spokane","country":"US","clli":null,"tier":null,"src":"peeringdb"},"geometry":{"type":"Point","coordinates":[-117.4193,47.658139]}},{"type":"Feature","properties":{"id":"peeringdb-505","n":"Equinix DA - Dallas (previously Infomart Dallas)","op":"Equinix, Inc.","address":"1950 N Stemmons Fwy","city":"Dallas","country":"US","clli":null,"tier":null,"src":"peeringdb"},"geometry":{"type":"Point","coordinates":[-96.819412,32.800748]}},{"type":"Feature","properties":{"id":"peeringdb-507","n":"324 E Wisconsin","op":"Wells Interconnection","address":"324 E. Wisconsin Ave","city":"Milwaukee","country":"US","clli":"MILWWI","tier":null,"src":"peeringdb"},"geometry":{"type":"Point","coordinates":[-87.906937,43.039016]}},{"type":"Feature","properties":{"id":"peeringdb-508","n":"TSUA","op":"TSUA","address":"Leontovicha 9, building 3, flour 3","city":"Kyiv","country":"UA","clli":null,"tier":null,"src":"peeringdb"},"geometry":{"type":"Point","coordinates":[30.509689,50.445241]}},{"type":"Feature","properties":{"id":"peeringdb-509","n":"Equinix WA1 - Warsaw, Centrum LIM","op":"Equinix, Inc.","address":"65/79 al. Jerozolimskie","city":"Warsaw","country":"PL","clli":null,"tier":null,"src":"peeringdb"},"geometry":{"type":"Point","coordinates":[21.003357,52.227354]}},{"type":"Feature","properties":{"id":"peeringdb-510","n":"Equinix SV6 - Silicon Valley, Sunnyvale","op":"Equinix, Inc.","address":"444 Toyama Dr","city":"Sunnyvale","country":"US","clli":"SNVBCA","tier":null,"src":"peeringdb"},"geometry":{"type":"Point","coordinates":[-122.014572,37.399589]}},{"type":"Feature","properties":{"id":"peeringdb-511","n":"Raiffeisen Diana Haus (RDH)","op":"Raiffeisen Informatik GmbH & Co KG","address":"Lilienbrunngasse 7-9","city":"Vienna","country":"AT","clli":null,"tier":null,"src":"peeringdb"},"geometry":{"type":"Point","coordinates":[16.377515,48.214174]}},{"type":"Feature","properties":{"id":"peeringdb-519","n":"Lumen Boston","op":"Lumen Technologies Inc","address":"300 Bent St.","city":"Cambridge","country":"US","clli":"CMBRMAOR","tier":null,"src":"peeringdb"},"geometry":{"type":"Point","coordinates":[-71.086779,42.367691]}},{"type":"Feature","properties":{"id":"peeringdb-520","n":"1101 Stewart Ave, Garden City","op":"1101 Stewart Ave, Garden City","address":"1101 Stewart Ave","city":"Garden City","country":"US","clli":"GRCYNY","tier":null,"src":"peeringdb"},"geometry":{"type":"Point","coordinates":[-73.594195,40.73616]}},{"type":"Feature","properties":{"id":"peeringdb-524","n":"Eurofiber Datacenter Nedzone","op":"Eurofiber","address":"Drukkerij 6","city":"Steenbergen","country":"NL","clli":null,"tier":null,"src":"peeringdb"},"geometry":{"type":"Point","coordinates":[4.305055,51.587535]}},{"type":"Feature","properties":{"id":"peeringdb-525","n":"180 E Broad St.","op":"Hexion Building","address":"Meet-Me-Room","city":"Columbus","country":"US","clli":null,"tier":null,"src":"peeringdb"},"geometry":{"type":"Point","coordinates":[-82.995994,39.963183]}},{"type":"Feature","properties":{"id":"peeringdb-527","n":"TCC Technology Data Center - Bangkok,Thailand (TCC ETDC , TCCtech)","op":"TCC Technology Co., Ltd","address":"1 Empire Tower 30th Floor","city":"Sathorn, Bangkok","country":"TH","clli":null,"tier":null,"src":"peeringdb"},"geometry":{"type":"Point","coordinates":[100.53019,13.720794]}},{"type":"Feature","properties":{"id":"peeringdb-529","n":"UPL TELECOM s.r.o.","op":"UPL TELECOM","address":"Vinohradská 184/2396","city":"Prague","country":"CZ","clli":null,"tier":null,"src":"peeringdb"},"geometry":{"type":"Point","coordinates":[14.472131,50.078067]}},{"type":"Feature","properties":{"id":"peeringdb-531","n":"Iron Mountain Data Center - Scottsdale (AZS-1)","op":"Iron Mountain Data Centers","address":"8521 E. Princess Drive","city":"Scottsdale","country":"US","clli":null,"tier":null,"src":"peeringdb"},"geometry":{"type":"Point","coordinates":[-111.895495,33.64465]}},{"type":"Feature","properties":{"id":"peeringdb-532","n":"QTS Eemshaven (EEM1)","op":"QTS Realty Trust, Inc.","address":"Huibertgatweg 2","city":"Eemshaven","country":"NL","clli":null,"tier":null,"src":"peeringdb"},"geometry":{"type":"Point","coordinates":[6.858243,53.437293]}},{"type":"Feature","properties":{"id":"peeringdb-534","n":"Equinix LD9 - London, Powergate","op":"Equinix, Inc.","address":"Unit 1, Powergate Business Park","city":"London","country":"GB","clli":"LONDEN","tier":null,"src":"peeringdb"},"geometry":{"type":"Point","coordinates":[-0.257425,51.530547]}},{"type":"Feature","properties":{"id":"peeringdb-535","n":"Arelion Oslo OKR/C","op":"Arelion","address":"Østre Aker Vei 18","city":"Oslo","country":"NO","clli":null,"tier":null,"src":"peeringdb"},"geometry":{"type":"Point","coordinates":[10.812054,59.928212]}},{"type":"Feature","properties":{"id":"peeringdb-536","n":"UNI-C","op":"Styrelsen for It og Læring","address":"DTU building 304","city":"Lyngby","country":"DK","clli":null,"tier":null,"src":"peeringdb"},"geometry":{"type":"Point","coordinates":[12.519543,55.784385]}},{"type":"Feature","properties":{"id":"peeringdb-537","n":"Cogent Strasbourg","op":"Cogent Communications, Inc.","address":"46 route de Bischwiller","city":"Schiltigheim","country":"FR","clli":null,"tier":null,"src":"peeringdb"},"geometry":{"type":"Point","coordinates":[7.744168,48.60056]}},{"type":"Feature","properties":{"id":"peeringdb-538","n":"Databarn Rivium","op":"Databarn","address":"Rivium Boulevard 62","city":"Capelle aan den IJssel","country":"NL","clli":null,"tier":null,"src":"peeringdb"},"geometry":{"type":"Point","coordinates":[4.546787,51.91038]}},{"type":"Feature","properties":{"id":"peeringdb-541","n":"SBTC","op":"SBTC","address":"1914 3rd Avenue","city":"Seattle","country":"US","clli":"STTLWA","tier":null,"src":"peeringdb"},"geometry":{"type":"Point","coordinates":[-122.340036,47.612139]}},{"type":"Feature","properties":{"id":"peeringdb-542","n":"Equinix NY7 - New York, North Bergen","op":"Equinix, Inc.","address":"5851 Westside Ave","city":"North Bergen","country":"US","clli":"NBRGNJ","tier":null,"src":"peeringdb"},"geometry":{"type":"Point","coordinates":[-74.031129,40.796857]}},{"type":"Feature","properties":{"id":"peeringdb-543","n":"Associated Engineering Plaza (10909 Jasper Avenue)","op":"Colliers International","address":"10909 Jasper Avenue","city":"Edmonton","country":"CA","clli":null,"tier":null,"src":"peeringdb"},"geometry":{"type":"Point","coordinates":[-113.508986,53.540593]}},{"type":"Feature","properties":{"id":"peeringdb-544","n":"Intermax Schouwburgplein Rotterdam","op":"Intermax Cloudsourcing B.V.","address":"Schouwburgplein 30-34","city":"Rotterdam","country":"NL","clli":null,"tier":null,"src":"peeringdb"},"geometry":{"type":"Point","coordinates":[4.474623,51.92025]}},{"type":"Feature","properties":{"id":"peeringdb-545","n":"WIIT Milano","op":"WIIT S.p.a.","address":"Via dei Mercanti, 12","city":"Milan","country":"IT","clli":null,"tier":null,"src":"peeringdb"},"geometry":{"type":"Point","coordinates":[9.187323,45.465492]}},{"type":"Feature","properties":{"id":"peeringdb-547","n":"Hurricane Electric Fremont 2","op":"Hurricane Electric","address":"48233 Warm Springs Blvd","city":"Fremont","country":"US","clli":"FRMTCA","tier":null,"src":"peeringdb"},"geometry":{"type":"Point","coordinates":[-121.920111,37.471809]}},{"type":"Feature","properties":{"id":"peeringdb-548","n":"3500 Garrott","op":"JCCH, Ltd","address":"3500 Garrott","city":"Houston","country":"US","clli":"HSTNJA","tier":null,"src":"peeringdb"},"geometry":{"type":"Point","coordinates":[-95.385784,29.741436]}},{"type":"Feature","properties":{"id":"peeringdb-550","n":"Silver @ Exchange","op":"Silver Telecom","address":"The Exchange","city":"Varsity Lakes","country":"AU","clli":null,"tier":null,"src":"peeringdb"},"geometry":{"type":"Point","coordinates":[153.410899,-28.079298]}},{"type":"Feature","properties":{"id":"peeringdb-554","n":"TATA Communications Mumbai","op":"TATA Communications Ltd","address":"Kashinath Dhuru Marg","city":"Mumbai","country":"IN","clli":null,"tier":null,"src":"peeringdb"},"geometry":{"type":"Point","coordinates":[72.83155,19.020332]}},{"type":"Feature","properties":{"id":"peeringdb-555","n":"Namex Datacenter Rome","op":"Namex - Rome Internet eXchange Point","address":"Via dei Tizi 6/b","city":"Rome","country":"IT","clli":null,"tier":null,"src":"peeringdb"},"geometry":{"type":"Point","coordinates":[12.512156,41.898919]}},{"type":"Feature","properties":{"id":"peeringdb-558","n":"Equinix MI2 - Miami","op":"Equinix, Inc.","address":"36 NE 2nd St","city":"Miami","country":"US","clli":"MIAUFL","tier":null,"src":"peeringdb"},"geometry":{"type":"Point","coordinates":[-80.19313,25.775869]}},{"type":"Feature","properties":{"id":"peeringdb-561","n":"H5 Data Centers Nashville","op":"H5 Data Centers","address":"147 Fourth Avenue","city":"Nashville","country":"US","clli":null,"tier":null,"src":"peeringdb"},"geometry":{"type":"Point","coordinates":[-86.778674,36.162626]}},{"type":"Feature","properties":{"id":"peeringdb-564","n":"PSN Networks","op":"PT. Pasifik Satelit Nusantara","address":"Kantor Taman A9 Unit C3-C4","city":"Jakarta","country":"ID","clli":null,"tier":null,"src":"peeringdb"},"geometry":{"type":"Point","coordinates":[106.828946,-6.2325]}},{"type":"Feature","properties":{"id":"peeringdb-565","n":"Kent Science Park","op":"Sota Solutions Ltd","address":"Kent Science Park","city":"Kent","country":"GB","clli":null,"tier":null,"src":"peeringdb"},"geometry":{"type":"Point","coordinates":[0.725281,51.312671]}},{"type":"Feature","properties":{"id":"peeringdb-567","n":"Solcon Datacenter Dronten","op":"Solcon Internetdiensten  B.V.","address":"Het Zwarte Water 13","city":"Dronten","country":"NL","clli":null,"tier":null,"src":"peeringdb"},