{"type":"FeatureCollection","generated_at":"2026-04-23T05:42:46.444Z","region":"denver","bbox":[-105.3,39.55,-104.75,40.1],"category":"airports","feature_count":10,"features":[{"type":"Feature","properties":{"id":"osm-node-369165498","osm_type":"node","osm_id":369165498,"category":"airports","name":"Suckla Farms Balloonport","operator":null,"ref":null,"tags":{"addr:state":"CO","aeroway":"aerodrome","ele":"1534","faa":"CO28","gnis:feature_id":"204331","name":"Suckla Farms Balloonport","source_ref":"geonames.usgs.gov","wikidata":"Q49751279"}},"geometry":{"type":"Point","coordinates":[-104.892475,40.0580394]}},{"type":"Feature","properties":{"id":"osm-node-369165662","osm_type":"node","osm_id":369165662,"category":"airports","name":"Delventhal Farm Airport","operator":null,"ref":null,"tags":{"addr:state":"CO","aeroway":"aerodrome","ele":"1532","gnis:feature_id":"204283","name":"Delventhal Farm Airport","source_ref":"geonames.usgs.gov"}},"geometry":{"type":"Point","coordinates":[-104.7902491,40.0108169]}},{"type":"Feature","properties":{"id":"osm-node-369165748","osm_type":"node","osm_id":369165748,"category":"airports","name":"Lemons Strip","operator":"Darrell Lemons","ref":null,"tags":{"addr:state":"CO","aeroway":"aerodrome","ele":"1617","faa":"CO10","gnis:feature_id":"204273","internet_access":"no","name":"Lemons Strip","operator":"Darrell Lemons","operator:type":"private","source_ref":"geonames.usgs.gov","wikidata":"Q49747448"}},"geometry":{"type":"Point","coordinates":[-105.224049,39.9952728]}},{"type":"Feature","properties":{"id":"osm-node-369165791","osm_type":"node","osm_id":369165791,"category":"airports","name":"Meyer Ranch Airport (Historic)","operator":null,"ref":null,"tags":{"addr:state":"CO","aeroway":"aerodrome","disused":"yes","ele":"2460","gnis:feature_id":"204321","name":"Meyer Ranch Airport (Historic)","source_ref":"geonames.usgs.gov"}},"geometry":{"type":"Point","coordinates":[-105.2814466,39.5509787]}},{"type":"Feature","properties":{"id":"osm-node-369165960","osm_type":"node","osm_id":369165960,"category":"airports","name":"Leyners Hayfield Airport","operator":null,"ref":null,"tags":{"addr:state":"CO","aeroway":"aerodrome","ele":"1539","gnis:feature_id":"204475","name":"Leyners Hayfield Airport","source_ref":"geonames.usgs.gov"}},"geometry":{"type":"Point","coordinates":[-105.1124841,40.0460959]}},{"type":"Feature","properties":{"id":"osm-node-369179652","osm_type":"node","osm_id":369179652,"category":"airports","name":"Buckley Space Force Base","operator":"USAF","ref":"BKF","tags":{"addr:state":"CO","aeroway":"aerodrome","alt_name":"Buckley Air National Guard Base","closest_town":"Aurora, Colorado","faa":"BKF","gnis:feature_id":"204252","iata":"BFK","icao":"KBKF","landuse":"military","military":"airfield","name":"Buckley Space Force Base","old_name":"Buckley Air National Guard Base","operator":"USAF","ref":"BKF","source":"FAA","wikidata":"Q3499338","wikipedia":"en:Buckley Space Force Base"}},"geometry":{"type":"Point","coordinates":[-104.758286,39.7078055]}},{"type":"Feature","properties":{"id":"osm-node-1041997575","osm_type":"node","osm_id":1041997575,"category":"airports","name":"Fox Hole Airport","operator":null,"ref":null,"tags":{"aeroway":"aerodrome","name":"Fox Hole Airport","source":"ourairports.com","wikidata":"Q74841472"}},"geometry":{"type":"Point","coordinates":[-105.0719986,40.0046997]}},{"type":"Feature","properties":{"id":"osm-node-1042024553","osm_type":"node","osm_id":1042024553,"category":"airports","name":"Tall Timber Airport","operator":null,"ref":null,"tags":{"aeroway":"aerodrome","name":"Tall Timber Airport","source":"ourairports.com","wikidata":"Q74841432"}},"geometry":{"type":"Point","coordinates":[-105.2681288,39.6444093]}},{"type":"Feature","properties":{"id":"osm-node-9438483221","osm_type":"node","osm_id":9438483221,"category":"airports","name":"Rocky Mountain Metropolitan Airport","operator":"Jefferson County","ref":null,"tags":{"addr:city":"Broomfield","addr:housenumber":"11755","addr:postcode":"80021","addr:state":"CO","addr:street":"Airport Way","aeroway":"aerodrome","iata":"BJC","icao":"KBJC","name":"Rocky Mountain Metropolitan Airport","operator":"Jefferson County","operator:type":"public"}},"geometry":{"type":"Point","coordinates":[-105.1295243,39.914579]}},{"type":"Feature","properties":{"id":"osm-node-9554498137","osm_type":"node","osm_id":9554498137,"category":"airports","name":"Alexander Dawson School Airport (historical)","operator":null,"ref":null,"tags":{"aeroway":"aerodrome","name":"Alexander Dawson School Airport (historical)"}},"geometry":{"type":"Point","coordinates":[-105.1067574,40.0604966]}}]}