{"type":"FeatureCollection","generated_at":"2026-04-23T05:18:38.082Z","region":"la","bbox":[-118.7,33.7,-118,34.34],"category":"hospitals","feature_count":329,"features":[{"type":"Feature","properties":{"id":"osm-node-358808225","osm_type":"node","osm_id":358808225,"category":"hospitals","name":"Lakeview Terrace Sanitarium","operator":null,"ref":null,"tags":{"amenity":"hospital","ele":"379","emergency":"no","gnis:feature_id":"1660882","name":"Lakeview Terrace Sanitarium"}},"geometry":{"type":"Point","coordinates":[-118.3365343,34.274213]}},{"type":"Feature","properties":{"id":"osm-node-358808301","osm_type":"node","osm_id":358808301,"category":"hospitals","name":"Tarzana Treatment Centers Long Beach","operator":null,"ref":null,"tags":{"addr:city":"Long Beach","addr:housenumber":"2101","addr:postcode":"90806","addr:street":"Magnolia Avenue","amenity":"hospital","emergency":"no","gnis:feature_id":"1660974","healthcare":"hospital","healthcare:speciality":"psychiatry","name":"Tarzana Treatment Centers Long Beach","old_name":"Magnolia Hospital","phone":"+1 562 218 1868","website":"https://www.tarzanatc.org/location-detail/long-beach/2101-magnolia-avenue/"}},"geometry":{"type":"Point","coordinates":[-118.1984023,33.795573]}},{"type":"Feature","properties":{"id":"osm-node-358808494","osm_type":"node","osm_id":358808494,"category":"hospitals","name":"ChapCare Fair Oaks","operator":"Community Health Alliance Pasadena","ref":null,"tags":{"addr:city":"Pasadena","addr:housenumber":"1855","addr:postcode":"91103","addr:street":"North Fair Oaks Avenue","amenity":"clinic","healthcare":"clinic","name":"ChapCare Fair Oaks","operator":"Community Health Alliance Pasadena","website":"https://www.chapcare.org/"}},"geometry":{"type":"Point","coordinates":[-118.1511343,34.1775836]}},{"type":"Feature","properties":{"id":"osm-node-358819796","osm_type":"node","osm_id":358819796,"category":"hospitals","name":"Child and Family Development Center","operator":null,"ref":null,"tags":{"amenity":"clinic","gnis:feature_id":"1693157","healthcare":"clinic","healthcare:speciality":"paediatrics","name":"Child and Family Development Center"}},"geometry":{"type":"Point","coordinates":[-118.4803811,34.0292498]}},{"type":"Feature","properties":{"id":"osm-node-358826153","osm_type":"node","osm_id":358826153,"category":"hospitals","name":"Los Angeles Community Hospital","operator":"Alta Los Angeles Hospitals","ref":null,"tags":{"addr:city":"Los Angeles","addr:housenumber":"4081","addr:postcode":"90023","addr:street":"East Olympic Boulevard","amenity":"hospital","emergency":"yes","gnis:feature_id":"1732538","healthcare":"hospital","name":"Los Angeles Community Hospital","opening_hours":"24/7","operator":"Alta Los Angeles Hospitals","phone":"+1 323 267 0477","website":"https://www.lach-la.com/"}},"geometry":{"type":"Point","coordinates":[-118.1864606,34.0191797]}},{"type":"Feature","properties":{"id":"osm-node-358850991","osm_type":"node","osm_id":358850991,"category":"hospitals","name":"East Los Angeles Health Center","operator":"Planned Parenthood","ref":null,"tags":{"addr:city":"Los Angeles","addr:housenumber":"5068","addr:postcode":"90022","addr:street":"Whittier Boulevard","amenity":"clinic","gnis:feature_id":"1878505","healthcare":"counselling","healthcare:counselling":"antenatal;sexual","name":"East Los Angeles Health Center","opening_hours":"Mo,Tu,We,Fr 08:00-17:00; Th,Sa 08:00-16:00","operator":"Planned Parenthood","operator:wikidata":"Q2553262","phone":"+1 800 576 5544","website":"https://www.plannedparenthood.org/health-center/california/los-angeles/90022/east-los-angeles-health-center-3375-90070"}},"geometry":{"type":"Point","coordinates":[-118.160444,34.0206711]}},{"type":"Feature","properties":{"id":"osm-node-358852849","osm_type":"node","osm_id":358852849,"category":"hospitals","name":"Comprehensive Community Health Centers","operator":null,"ref":null,"tags":{"addr:city":"Glendale","addr:housenumber":"801","addr:postcode":"91205","addr:street":"South Chevy Chase Drive","addr:unit":"Suite 250","amenity":"clinic","healthcare":"clinic","name":"Comprehensive Community Health Centers","phone":"+1 818 265 2264","website":"https://cchccenters.org/locations/glendale/"}},"geometry":{"type":"Point","coordinates":[-118.2405556,34.1366667]}},{"type":"Feature","properties":{"id":"osm-node-358857876","osm_type":"node","osm_id":358857876,"category":"hospitals","name":"Jonathan Jaques Children's Cancer Center","operator":null,"ref":null,"tags":{"amenity":"hospital","emergency":"no","gnis:feature_id":"2130122","healthcare":"hospital","healthcare:speciality":"paediatric_oncology","level":"3","name":"Jonathan Jaques Children's Cancer Center","phone":"+1 562 933 8500","website":"https://www.millerchildrenshospitallb.org/cancer"}},"geometry":{"type":"Point","coordinates":[-118.1858169,33.8084999]}},{"type":"Feature","properties":{"id":"osm-node-358857879","osm_type":"node","osm_id":358857879,"category":"hospitals","name":"Miller Children's & Women's Hospital Long Beach","operator":"MemorialCare","ref":null,"tags":{"addr:city":"Long Beach","addr:housenumber":"2801","addr:postcode":"90806","addr:street":"Atlantic Avenue","amenity":"hospital","emergency":"no","gnis:feature_id":"2130123","healthcare":"hospital","name":"Miller Children's & Women's Hospital Long Beach","operator":"MemorialCare","phone":"+1 562 933 5437","website":"https://www.millerchildrenshospitallb.org/","wikidata":"Q6859100"}},"geometry":{"type":"Point","coordinates":[-118.1860441,33.8086158]}},{"type":"Feature","properties":{"id":"osm-node-358857963","osm_type":"node","osm_id":358857963,"category":"hospitals","name":"Buddhist Tzu Chi Medicial Center","operator":"Tzu Chi Medical Foundation","ref":null,"tags":{"addr:city":"Alhambra","addr:housenumber":"1000","addr:postcode":"91801","addr:street":"South Garfield Avenue","amenity":"clinic","gnis:feature_id":"2353601","healthcare":"clinic","name":"Buddhist Tzu Chi Medicial Center","opening_hours":"Tu-Sa 08:00-17:00","operator":"Tzu Chi Medical Foundation","phone":"+1 626 281 3383","website":"https://www.tzuchiclinics.org/"}},"geometry":{"type":"Point","coordinates":[-118.1227111,34.0845635]}},{"type":"Feature","properties":{"id":"osm-node-1028915989","osm_type":"node","osm_id":1028915989,"category":"hospitals","name":"Leif Rogers MD","operator":null,"ref":null,"tags":{"addr:city":"Beverly Hills","addr:housenumber":"9735","addr:postcode":"90210","addr:state":"CA","addr:street":"Wilshire Boulevard","amenity":"clinic","emergency":"no","healthcare":"clinic","healthcare:speciality":"plastic_surgery","name":"Leif Rogers MD","phone":"+1-310-860-8915","smoking":"no","website":"https://leifrogersmd.com/","wheelchair":"yes"}},"geometry":{"type":"Point","coordinates":[-118.4074976,34.0673031]}},{"type":"Feature","properties":{"id":"osm-node-1544314389","osm_type":"node","osm_id":1544314389,"category":"hospitals","name":"Naples Medical Group","operator":null,"ref":null,"tags":{"amenity":"hospital","emergency":"no","healthcare":"hospital","name":"Naples Medical Group"}},"geometry":{"type":"Point","coordinates":[-118.1193286,33.7557648]}},{"type":"Feature","properties":{"id":"osm-node-1708573884","osm_type":"node","osm_id":1708573884,"category":"hospitals","name":"Simms/Mann Health and Wellness Center","operator":"Venice Family Clinic","ref":null,"tags":{"addr:city":"Santa Monica","addr:housenumber":"2509","addr:postcode":"90405","addr:street":"Pico Boulevard","amenity":"clinic","healthcare":"clinic","name":"Simms/Mann Health and Wellness Center","opening_hours":"Mo-Fr 08:00-17:00","operator":"Venice Family Clinic","phone":"+1 310 392 8636","website":"https://venicefamilyclinic.org/","wikidata":"Q7919981"}},"geometry":{"type":"Point","coordinates":[-118.463289,34.0231975]}},{"type":"Feature","properties":{"id":"osm-node-1721421594","osm_type":"node","osm_id":1721421594,"category":"hospitals","name":"Kaiser Permanente Culver-Marina Offices","operator":"Kaiser Permanente","ref":null,"tags":{"addr:city":"Los Angeles","addr:housenumber":"12001","addr:postcode":"90066","addr:street":"West Washington Boulevard","amenity":"clinic","healthcare":"clinic","name":"Kaiser Permanente Culver-Marina Offices","operator":"Kaiser Permanente","operator:short":"KP","operator:website":"https://healthy.kaiserpermanente.org/","operator:wikidata":"Q1721601","operator:wikipedia":"en:Kaiser Permanente","phone":"+1 800 954 8000","website":"https://healthy.kaiserpermanente.org/southern-california/facilities/Culver-Marina-Medical-Offices-100144"}},"geometry":{"type":"Point","coordinates":[-118.422789,33.9980617]}},{"type":"Feature","properties":{"id":"osm-node-1894122905","osm_type":"node","osm_id":1894122905,"category":"hospitals","name":"Campus Pharmacy & Home Health Center","operator":null,"ref":null,"tags":{"amenity":"clinic","healthcare":"clinic","name":"Campus Pharmacy & Home Health Center"}},"geometry":{"type":"Point","coordinates":[-118.445724,34.0657631]}},{"type":"Feature","properties":{"id":"osm-node-1894122907","osm_type":"node","osm_id":1894122907,"category":"hospitals","name":"Mattel Children's Hospital","operator":null,"ref":null,"tags":{"addr:city":"Los Angeles","addr:housenumber":"757","addr:postcode":"90095","addr:state":"CA","addr:street":"Westwood Plaza","amenity":"hospital","check_date":"2025-11-28","emergency":"no","healthcare":"hospital","healthcare:speciality":"paediatrics","name":"Mattel Children's Hospital","phone":"+1 310 825 9111","website":"https://www.uclahealth.org/hospitals/mattel","wikidata":"Q30280929"}},"geometry":{"type":"Point","coordinates":[-118.4471116,34.0663274]}},{"type":"Feature","properties":{"id":"osm-node-1894122910","osm_type":"node","osm_id":1894122910,"category":"hospitals","name":"Resnick Neuropsychiatric Hospital","operator":null,"ref":null,"tags":{"addr:city":"Los Angeles","addr:housenumber":"150","addr:postcode":"90095","addr:state":"CA","addr:street":"UCLA Medical Plaza","amenity":"hospital","check_date":"2025-11-28","emergency":"no","healthcare":"hospital","healthcare:speciality":"neuropsychiatry","name":"Resnick Neuropsychiatric Hospital","phone":"+1-310-825-9111","website":"https://www.uclahealth.org/hospitals/resnick","wikidata":"Q105899003"}},"geometry":{"type":"Point","coordinates":[-118.4465012,34.0661034]}},{"type":"Feature","properties":{"id":"osm-node-2351670047","osm_type":"node","osm_id":2351670047,"category":"hospitals","name":"Nu Vela Esthetica","operator":null,"ref":null,"tags":{"amenity":"hospital","designation":"Medical Clinics","emergency":"no","healthcare":"hospital","name":"Nu Vela Esthetica"}},"geometry":{"type":"Point","coordinates":[-118.561841,34.2751983]}},{"type":"Feature","properties":{"id":"osm-node-2392101217","osm_type":"node","osm_id":2392101217,"category":"hospitals","name":"Neurological Rehabilitation & Research Unit","operator":null,"ref":null,"tags":{"addr:city":"Los Angeles","addr:housenumber":"760","addr:postcode":"90095","addr:street":"Westwood Plaza","alt_name":"NRRU","amenity":"hospital","emergency":"no","healthcare":"hospital","name":"Neurological Rehabilitation & Research Unit","phone":"+1 310 794 6556","website":"http://rehab.ucla.edu/body.cfm?id=29"}},"geometry":{"type":"Point","coordinates":[-118.4442777,34.065767]}},{"type":"Feature","properties":{"id":"osm-node-2556689683","osm_type":"node","osm_id":2556689683,"category":"hospitals","name":"Kedren Community Health Center","operator":null,"ref":null,"tags":{"addr:city":"Los Angeles","addr:housenumber":"4211","addr:postcode":"90011","addr:street":"South Avalon Boulevard","amenity":"hospital","emergency":"no","healthcare":"hospital","healthcare:speciality":"psychiatry","name":"Kedren Community Health Center","phone":"+1 323 233 0425","website":"https://kedren.org/"}},"geometry":{"type":"Point","coordinates":[-118.2661911,34.0073173]}},{"type":"Feature","properties":{"id":"osm-node-2657044914","osm_type":"node","osm_id":2657044914,"category":"hospitals","name":"Los Angeles Medical Center Cosmetic Surgery","operator":null,"ref":null,"tags":{"addr:city":"Los Angeles","addr:housename":"Los Angeles Medical Center Cosmetic Surgery","addr:housenumber":"2000","addr:postcode":"90057","addr:street":"Wilshire Boulevard","amenity":"clinic","healthcare":"clinic","name":"Los Angeles Medical Center Cosmetic Surgery","phone":"+1-213-353-1552","website":"https://www.lamccosmetic.com/"}},"geometry":{"type":"Point","coordinates":[-118.275106,34.0572495]}},{"type":"Feature","properties":{"id":"osm-node-2939955394","osm_type":"node","osm_id":2939955394,"category":"hospitals","name":"MemorialCare Medical Group","operator":"Memorial Hospital","ref":null,"tags":{"amenity":"clinic","healthcare":"clinic","name":"MemorialCare Medical Group","operator":"Memorial Hospital"}},"geometry":{"type":"Point","coordinates":[-118.1394375,33.8541634]}},{"type":"Feature","properties":{"id":"osm-node-2959404090","osm_type":"node","osm_id":2959404090,"category":"hospitals","name":"BCF Traumatic Brain Injury Services","operator":null,"ref":null,"tags":{"amenity":"clinic","name":"BCF Traumatic Brain Injury Services"}},"geometry":{"type":"Point","coordinates":[-118.1407169,33.8341629]}},{"type":"Feature","properties":{"id":"osm-node-2959452842","osm_type":"node","osm_id":2959452842,"category":"hospitals","name":"Emergency Room entrance","operator":null,"ref":null,"tags":{"amenity":"clinic","healthcare":"clinic","name":"Emergency Room entrance"}},"geometry":{"type":"Point","coordinates":[-118.1206795,33.7767798]}},{"type":"Feature","properties":{"id":"osm-node-3008138952","osm_type":"node","osm_id":3008138952,"category":"hospitals","name":"Dr Scheffel's Eye Care","operator":null,"ref":null,"tags":{"addr:city":"Lakewood","addr:housenumber":"4074","addr:postcode":"90712","addr:state":"CA","addr:street":"Hardwick Street","amenity":"clinic","name":"Dr Scheffel's Eye Care","phone":"+1 5626336443"}},"geometry":{"type":"Point","coordinates":[-118.14427,33.8497128]}},{"type":"Feature","properties":{"id":"osm-node-3008139332","osm_type":"node","osm_id":3008139332,"category":"hospitals","name":"Lakewood BioLife Center","operator":"DaVita Dialysis","ref":null,"tags":{"amenity":"clinic","brand":"DaVita Dialysis","brand:wikidata":"Q5207184","description":"Plasma donation center","healthcare":"dialysis","healthcare:speciality":"dialysis","name":"Lakewood BioLife Center","operator":"DaVita Dialysis","operator:wikidata":"Q5207184","operator:wikipedia":"de:DaVita"}},"geometry":{"type":"Point","coordinates":[-118.139424,33.8483416]}},{"type":"Feature","properties":{"id":"osm-node-3015941749","osm_type":"node","osm_id":3015941749,"category":"hospitals","name":"Hertzog Eye Care","operator":null,"ref":null,"tags":{"amenity":"clinic","name":"Hertzog Eye Care"}},"geometry":{"type":"Point","coordinates":[-118.1343161,33.7954935]}},{"type":"Feature","properties":{"id":"osm-node-3017408112","osm_type":"node","osm_id":3017408112,"category":"hospitals","name":"Hearing Coordination Center","operator":null,"ref":null,"tags":{"amenity":"clinic","name":"Hearing Coordination Center"}},"geometry":{"type":"Point","coordinates":[-118.1845805,33.8086091]}},{"type":"Feature","properties":{"id":"osm-node-3017408113","osm_type":"node","osm_id":3017408113,"category":"hospitals","name":"Cardiac Center","operator":null,"ref":null,"tags":{"amenity":"clinic","name":"Cardiac Center"}},"geometry":{"type":"Point","coordinates":[-118.1846958,33.8096075]}},{"type":"Feature","properties":{"id":"osm-node-3017408114","osm_type":"node","osm_id":3017408114,"category":"hospitals","name":"Endicrine/ Metabolic Center","operator":null,"ref":null,"tags":{"amenity":"clinic","name":"Endicrine/ Metabolic Center"}},"geometry":{"type":"Point","coordinates":[-118.1847064,33.8095072]}},{"type":"Feature","properties":{"id":"osm-node-3017408115","osm_type":"node","osm_id":3017408115,"category":"hospitals","name":"Neurology Center","operator":null,"ref":null,"tags":{"amenity":"clinic","name":"Neurology Center"}},"geometry":{"type":"Point","coordinates":[-118.1846824,33.8093133]}},{"type":"Feature","properties":{"id":"osm-node-3017408116","osm_type":"node","osm_id":3017408116,"category":"hospitals","name":"Memorial Family Medicine","operator":null,"ref":null,"tags":{"amenity":"clinic","healthcare:speciality":"general;family_medicine","name":"Memorial Family Medicine"}},"geometry":{"type":"Point","coordinates":[-118.18782,33.8097591]}},{"type":"Feature","properties":{"id":"osm-node-3017408117","osm_type":"node","osm_id":3017408117,"category":"hospitals","name":"Buffum Eye Center","operator":null,"ref":null,"tags":{"amenity":"clinic","healthcare:speciality":"ophthalmology","name":"Buffum Eye Center"}},"geometry":{"type":"Point","coordinates":[-118.187697,33.8097011]}},{"type":"Feature","properties":{"id":"osm-node-3017408118","osm_type":"node","osm_id":3017408118,"category":"hospitals","name":"Home Care Pharmacy","operator":null,"ref":null,"tags":{"amenity":"clinic","name":"Home Care Pharmacy"}},"geometry":{"type":"Point","coordinates":[-118.1875792,33.8096231]}},{"type":"Feature","properties":{"id":"osm-node-3017408120","osm_type":"node","osm_id":3017408120,"category":"hospitals","name":"The Children's Clinic","operator":null,"ref":null,"tags":{"amenity":"clinic","name":"The Children's Clinic"}},"geometry":{"type":"Point","coordinates":[-118.187179,33.8094136]}},{"type":"Feature","properties":{"id":"osm-node-3017423803","osm_type":"node","osm_id":3017423803,"category":"hospitals","name":"Adult Pulmonary Rehab","operator":null,"ref":null,"tags":{"addr:city":"Long Beach","addr:housenumber":"2840","addr:state":"CA","addr:street":"Long Beach Boulevard","amenity":"clinic","healthcare":"clinic","name":"Adult Pulmonary Rehab"}},"geometry":{"type":"Point","coordinates":[-118.189231,33.8087874]}},{"type":"Feature","properties":{"id":"osm-node-3076140924","osm_type":"node","osm_id":3076140924,"category":"hospitals","name":"Wellness Center","operator":null,"ref":null,"tags":{"amenity":"clinic","healthcare":"clinic","name":"Wellness Center"}},"geometry":{"type":"Point","coordinates":[-118.1222636,33.8039664]}},{"type":"Feature","properties":{"id":"osm-node-3114388342","osm_type":"node","osm_id":3114388342,"category":"hospitals","name":"HR Roxio Cardiology","operator":null,"ref":null,"tags":{"amenity":"clinic","healthcare":"clinic","healthcare:speciality":"cardiology","name":"HR Roxio Cardiology"}},"geometry":{"type":"Point","coordinates":[-118.1885738,33.8060729]}},{"type":"Feature","properties":{"id":"osm-node-3114436635","osm_type":"node","osm_id":3114436635,"category":"hospitals","name":"Dawn to Dusk Medical Center","operator":null,"ref":null,"tags":{"amenity":"clinic","name":"Dawn to Dusk Medical Center"}},"geometry":{"type":"Point","coordinates":[-118.1846685,33.8082793]}},{"type":"Feature","properties":{"id":"osm-node-3143302470","osm_type":"node","osm_id":3143302470,"category":"hospitals","name":"Eye Treatment Center","operator":null,"ref":null,"tags":{"amenity":"clinic","healthcare":"clinic","name":"Eye Treatment Center"}},"geometry":{"type":"Point","coordinates":[-118.188885,33.8292421]}},{"type":"Feature","properties":{"id":"osm-node-3209503165","osm_type":"node","osm_id":3209503165,"category":"hospitals","name":"DaVita Rose City Dialysis","operator":"DaVita Dialysis","ref":"11599","tags":{"addr:city":"Pasadena","addr:housenumber":"1382","addr:postcode":"91106-1515","addr:state":"CA","addr:street":"Locust Street","amenity":"clinic","brand":"DaVita","brand:wikidata":"Q5207184","check_date":"2026-01-06","fax":"+1 626-395-7723","healthcare":"dialysis","healthcare:speciality":"nephrology","name":"DaVita Rose City Dialysis","operator":"DaVita Dialysis","operator:type":"private","operator:wikidata":"Q5207184","phone":"+1-800-424-6589","ref":"11599","was:name":"ACTS Thrift Store","website":"https://davita.com/locations/ca/pasadena/1382-locust-st--11599/"}},"geometry":{"type":"Point","coordinates":[-118.1217523,34.1502341]}},{"type":"Feature","properties":{"id":"osm-node-3445900357","osm_type":"node","osm_id":3445900357,"category":"hospitals","name":"Medi Yoga Clinic 琉璃藥上堂","operator":null,"ref":null,"tags":{"addr:housenumber":"8835","addr:street":"East Las Tunas Drive","amenity":"clinic","healthcare":"clinic","name":"Medi Yoga Clinic 琉璃藥上堂","phone":"+1-626-285-7588"}},"geometry":{"type":"Point","coordinates":[-118.0760562,34.1036823]}},{"type":"Feature","properties":{"id":"osm-node-3449504014","osm_type":"node","osm_id":3449504014,"category":"hospitals","name":"Outpatient Diagnostics","operator":null,"ref":null,"tags":{"amenity":"clinic","healthcare":"clinic","name":"Outpatient Diagnostics"}},"geometry":{"type":"Point","coordinates":[-118.3571528,33.8389706]}},{"type":"Feature","properties":{"id":"osm-node-3449504015","osm_type":"node","osm_id":3449504015,"category":"hospitals","name":"Del Webb Health Educ.","operator":null,"ref":null,"tags":{"amenity":"clinic","healthcare":"clinic","name":"Del Webb Health Educ."}},"geometry":{"type":"Point","coordinates":[-118.3576651,33.8391577]}},{"type":"Feature","properties":{"id":"osm-node-3778724438","osm_type":"node","osm_id":3778724438,"category":"hospitals","name":"DaVita Dialysis","operator":"DaVita Dialysis","ref":null,"tags":{"addr:city":"Los Alamitos","addr:housenumber":"4141","addr:postcode":"90720","addr:state":"CA","addr:street":"West Katella Avenue","amenity":"clinic","healthcare":"dialysis","healthcare:speciality":"dialysis","name":"DaVita Dialysis","operator":"DaVita Dialysis","operator:wikidata":"Q5207184","operator:wikipedia":"de:DaVita"}},"geometry":{"type":"Point","coordinates":[-118.060168,33.8036389]}},{"type":"Feature","properties":{"id":"osm-node-3778724452","osm_type":"node","osm_id":3778724452,"category":"hospitals","name":"TotalCare Pavilion - Los Alamitos Medical Center","operator":null,"ref":null,"tags":{"addr:city":"Los Alamitos","addr:country":"US","addr:housenumber":"3951","addr:postcode":"90720","addr:state":"CA","addr:street":"Katella Avenue","amenity":"clinic","name":"TotalCare Pavilion - Los Alamitos Medical Center","website":"https://www.losalamitosmedctr.com/"}},"geometry":{"type":"Point","coordinates":[-118.0642474,33.803525]}},{"type":"Feature","properties":{"id":"osm-node-3800035754","osm_type":"node","osm_id":3800035754,"category":"hospitals","name":null,"operator":null,"ref":null,"tags":{"amenity":"clinic","healthcare":"clinic"}},"geometry":{"type":"Point","coordinates":[-118.3086789,34.0162386]}},{"type":"Feature","properties":{"id":"osm-node-3806218328","osm_type":"node","osm_id":3806218328,"category":"hospitals","name":"UCLA Health Clinic","operator":"UCLA Health","ref":null,"tags":{"amenity":"clinic","healthcare":"clinic","level":"1","name":"UCLA Health Clinic","operator":"UCLA Health","operator:type":"university","operator:wikidata":"Q18394900"}},"geometry":{"type":"Point","coordinates":[-118.605011,34.1862529]}},{"type":"Feature","properties":{"id":"osm-node-3900599613","osm_type":"node","osm_id":3900599613,"category":"hospitals","name":"One Medical","operator":"1Life Healthcare","ref":null,"tags":{"amenity":"clinic","healthcare":"clinic","name":"One Medical","operator":"1Life Healthcare","operator:wikidata":"Q85727717"}},"geometry":{"type":"Point","coordinates":[-118.6050049,34.1841377]}},{"type":"Feature","properties":{"id":"osm-node-3960933179","osm_type":"node","osm_id":3960933179,"category":"hospitals","name":"Elizabeth Taylor's Aquatic Center","operator":null,"ref":null,"tags":{"amenity":"clinic","healthcare":"clinic","healthcare:speciality":"orthopaedics","name":"Elizabeth Taylor's Aquatic Center"}},"geometry":{"type":"Point","coordinates":[-118.4112088,34.0292768]}},{"type":"Feature","properties":{"id":"osm-node-3961399893","osm_type":"node","osm_id":3961399893,"category":"hospitals","name":null,"operator":null,"ref":null,"tags":{"amenity":"clinic","healthcare":"clinic"}},"geometry":{"type":"Point","coordinates":[-118.610484,34.2014138]}},{"type":"Feature","properties":{"id":"osm-node-4234987093","osm_type":"node","osm_id":4234987093,"category":"hospitals","name":"Venice Family Clinic","operator":null,"ref":null,"tags":{"addr:housenumber":"600","addr:postcode":"90291","addr:street":"Rose Avenue","amenity":"clinic","healthcare":"clinic","name":"Venice Family Clinic","website":"https://www.venicefamilyclinic.org/"}},"geometry":{"type":"Point","coordinates":[-118.471545,33.9991226]}},{"type":"Feature","properties":{"id":"osm-node-4257911889","osm_type":"node","osm_id":4257911889,"category":"hospitals","name":"Providence Little Co. of Mary Medical Inst.","operator":"Providence Health & Services","ref":null,"tags":{"amenity":"clinic","healthcare":"clinic","name":"Providence Little Co. of Mary Medical Inst.","operator":"Providence Health & Services","operator:wikidata":"Q7252430","operator:wikipedia":"en:Providence Health & Services"}},"geometry":{"type":"Point","coordinates":[-118.379925,33.853328]}},{"type":"Feature","properties":{"id":"osm-node-4409314537","osm_type":"node","osm_id":4409314537,"category":"hospitals","name":"Prime MRI","operator":null,"ref":null,"tags":{"addr:city":"San Gabriel","addr:housenumber":"1400","addr:postcode":"91776","addr:state":"CA","addr:street":"San Gabriel Boulevard","amenity":"clinic","check_date":"2026-01-03","contact:yelp":"https://www.yelp.com/biz/prime-mri-san-gabriel","healthcare":"clinic","healthcare:speciality":"radiology","name":"Prime MRI","was:name":"JH Tax Corp"}},"geometry":{"type":"Point","coordinates":[-118.090423,34.0832389]}},{"type":"Feature","properties":{"id":"osm-node-4423003070","osm_type":"node","osm_id":4423003070,"category":"hospitals","name":"Southern California Reproductive Center","operator":"Dr. Jason Barritt","ref":null,"tags":{"addr:city":"Beverly Hills","addr:housenumber":"450","addr:postcode":"90210","addr:street":"North Roxbury Drive","amenity":"clinic","healthcare":"clinic","healthcare:speciality":"fertility","name":"Southern California Reproductive Center","opening_hours":"Mo-Fr 08:00-17:00","operator":"Dr. Jason Barritt","phone":"+1 310 277 2393","website":"https://www.scrcivf.com/locations/los-angeles/"}},"geometry":{"type":"Point","coordinates":[-118.4068326,34.0685157]}},{"type":"Feature","properties":{"id":"osm-node-4458970799","osm_type":"node","osm_id":4458970799,"category":"hospitals","name":"Hsin Yi Grace Huang, M.D.","operator":null,"ref":null,"tags":{"addr:city":"Pasadena","addr:housenumber":"1202","addr:postcode":"91106","addr:state":"CA","addr:street":"East Green Street","amenity":"clinic","check_date":"2026-01-02","email":"drhuangcardiologyclinic@gmail.com","fax":"+1 626-576-1808","healthcare":"clinic","healthcare:speciality":"cardiology","name":"Hsin Yi Grace Huang, M.D.","operator:type":"private","phone":"+1 626-576-1800","was:name":"1202 Salon and Spa","website":"https://www.gracehuangmd.com/"}},"geometry":{"type":"Point","coordinates":[-118.1256046,34.1443901]}},{"type":"Feature","properties":{"id":"osm-node-4472166389","osm_type":"node","osm_id":4472166389,"category":"hospitals","name":"Lakha Medical Clinic","operator":null,"ref":null,"tags":{"addr:city":"Huntington Park","addr:housenumber":"7136","addr:postcode":"90255","addr:state":"CA","addr:street":"Pacific Boulevard","addr:unit":"220","amenity":"clinic","healthcare":"clinic","name":"Lakha Medical Clinic","phone":"+1-323-588-5467","website":"https://lakhamedicalclinic.com/"}},"geometry":{"type":"Point","coordinates":[-118.224753,33.9745112]}},{"type":"Feature","properties":{"id":"osm-node-4482889770","osm_type":"node","osm_id":4482889770,"category":"hospitals","name":"Kindred Hospital Paramount","operator":null,"ref":null,"tags":{"amenity":"clinic","healthcare":"clinic","name":"Kindred Hospital Paramount"}},"geometry":{"type":"Point","coordinates":[-118.162268,33.8837917]}},{"type":"Feature","properties":{"id":"osm-node-4482889771","osm_type":"node","osm_id":4482889771,"category":"hospitals","name":"Suburban Medical Center","operator":null,"ref":null,"tags":{"amenity":"clinic","ele":"21","healthcare":"clinic","name":"Suburban Medical Center"}},"geometry":{"type":"Point","coordinates":[-118.162272,33.8845466]}},{"type":"Feature","properties":{"id":"osm-node-4691692473","osm_type":"node","osm_id":4691692473,"category":"hospitals","name":"Lakewood Open MRI","operator":null,"ref":null,"tags":{"addr:city":"Lakewood","addr:housenumber":"3715","addr:street":"South Street","amenity":"clinic","brand:wikidata":"Q668687","healthcare":"clinic","name":"Lakewood Open MRI"}},"geometry":{"type":"Point","coordinates":[-118.148485,33.8610275]}},{"type":"Feature","properties":{"id":"osm-node-4864275138","osm_type":"node","osm_id":4864275138,"category":"hospitals","name":"Adventist Health","operator":null,"ref":null,"tags":{"amenity":"clinic","healthcare":"clinic","name":"Adventist Health"}},"geometry":{"type":"Point","coordinates":[-118.2199722,34.2051877]}},{"type":"Feature","properties":{"id":"osm-node-4934597424","osm_type":"node","osm_id":4934597424,"category":"hospitals","name":null,"operator":null,"ref":null,"tags":{"amenity":"clinic","healthcare":"clinic","note":"Previously Payless Shoe Source"}},"geometry":{"type":"Point","coordinates":[-118.3674778,33.8125193]}},{"type":"Feature","properties":{"id":"osm-node-5496592748","osm_type":"node","osm_id":5496592748,"category":"hospitals","name":"Alhambra Health Center","operator":"Planned Parenthood","ref":null,"tags":{"addr:city":"Alhambra","addr:housenumber":"330","addr:postcode":"91801","addr:state":"CA","addr:street":"South Garfield Avenue","addr:unit":"Suite 300","amenity":"clinic","healthcare":"counselling","healthcare:counselling":"antenatal;sexual","level":"3","name":"Alhambra Health Center","opening_hours":"Mo,Th,Fr 08:30-16:30; Tu 11:00-19:00; We 09:00-17:00; Sa 08:00-16:00","operator":"Planned Parenthood","operator:type":"ngo","operator:wikidata":"Q2553262","phone":"+1 626 798 0706","website":"https://www.plannedparenthood.org/health-center/california/alhambra/91801/alhambra-health-center-3561-90090"}},"geometry":{"type":"Point","coordinates":[-118.1240468,34.091553]}},{"type":"Feature","properties":{"id":"osm-node-5497789138","osm_type":"node","osm_id":5497789138,"category":"hospitals","name":"Reliant Urgent Care","operator":"Reliant Urgent Care","ref":null,"tags":{"addr:city":"Los Angeles","addr:housenumber":"5901","addr:postcode":"90045","addr:street":"West Century Boulevard","amenity":"clinic","healthcare":"clinic","name":"Reliant Urgent Care","opening_hours":"24/7","operator":"Reliant Urgent Care","phone":"+1 310 215 6000","urgent_care":"yes","website":"https://www.relianturgentcare.com/location/lax-airport-area/"}},"geometry":{"type":"Point","coordinates":[-118.3865462,33.945921]}},{"type":"Feature","properties":{"id":"osm-node-5514004014","osm_type":"node","osm_id":5514004014,"category":"hospitals","name":"Orthopaedic Institute for Children","operator":null,"ref":null,"tags":{"addr:city":"Los Angeles","addr:housenumber":"403","addr:postcode":"90007","addr:street":"West Adams Boulevard","amenity":"clinic","gnis:feature_id":"1682215","healthcare":"clinic","healthcare:speciality":"paediatric_orthopaedics","name":"Orthopaedic Institute for Children","old_name":"Los Angeles Orthopaedic Hospital","phone":"+1 213 741 8330","website":"https://ortho-institute.org/","wikidata":"Q30281082"}},"geometry":{"type":"Point","coordinates":[-118.2735944,34.0276974]}},{"type":"Feature","properties":{"id":"osm-node-5517590023","osm_type":"node","osm_id":5517590023,"category":"hospitals","name":"USC Roski Eye Institute","operator":null,"ref":null,"tags":{"addr:city":"Los Angeles","addr:housenumber":"1450","addr:postcode":"90033","addr:street":"San Pablo Street","amenity":"clinic","healthcare":"clinic","healthcare:speciality":"ophthalmology","level":"4","name":"USC Roski Eye Institute","opening_hours":"Mo-Fr 09:00-17:00","phone":"+1 323 442 6335","website":"https://eye.keckmedicine.org/","wikidata":"Q25004566","wikipedia":"en:USC Eye Institute"}},"geometry":{"type":"Point","coordinates":[-118.2024086,34.0617414]}},{"type":"Feature","properties":{"id":"osm-node-5564976768","osm_type":"node","osm_id":5564976768,"category":"hospitals","name":"USC Keck Clinic","operator":"USC Keck","ref":null,"tags":{"amenity":"clinic","emergency":"no","healthcare":"clinic","name":"USC Keck Clinic","operator":"USC Keck"}},"geometry":{"type":"Point","coordinates":[-118.214936,34.2116346]}},{"type":"Feature","properties":{"id":"osm-node-5612522021","osm_type":"node","osm_id":5612522021,"category":"hospitals","name":"Fox Studios Medical Department","operator":null,"ref":null,"tags":{"amenity":"clinic","healthcare":"clinic","name":"Fox Studios Medical Department"}},"geometry":{"type":"Point","coordinates":[-118.412058,34.0505826]}},{"type":"Feature","properties":{"id":"osm-node-5615940421","osm_type":"node","osm_id":5615940421,"category":"hospitals","name":"Clinic","operator":null,"ref":null,"tags":{"addr:housenumber":"5051","addr:street":"West Pico Boulevard","amenity":"clinic","name":"Clinic"}},"geometry":{"type":"Point","coordinates":[-118.3464687,34.047913]}},{"type":"Feature","properties":{"id":"osm-node-5638623684","osm_type":"node","osm_id":5638623684,"category":"hospitals","name":"Carbon Health","operator":null,"ref":null,"tags":{"amenity":"clinic","check_date":"2024-06-11","healthcare":"clinic","name":"Carbon Health"}},"geometry":{"type":"Point","coordinates":[-118.1861421,33.7666918]}},{"type":"Feature","properties":{"id":"osm-node-5640830029","osm_type":"node","osm_id":5640830029,"category":"hospitals","name":"Shoreline Healthcare Center","operator":null,"ref":null,"tags":{"amenity":"clinic","name":"Shoreline Healthcare Center"}},"geometry":{"type":"Point","coordinates":[-118.1447866,33.7827495]}},{"type":"Feature","properties":{"id":"osm-node-5641895024","osm_type":"node","osm_id":5641895024,"category":"hospitals","name":"Optimum Group Health Care","operator":null,"ref":null,"tags":{"amenity":"clinic","healthcare":"clinic","name":"Optimum Group Health Care"}},"geometry":{"type":"Point","coordinates":[-118.0787586,33.7612307]}},{"type":"Feature","properties":{"id":"osm-node-5687986520","osm_type":"node","osm_id":5687986520,"category":"hospitals","name":"Cypress Urgent Care","operator":null,"ref":null,"tags":{"amenity":"clinic","healthcare":"clinic","name":"Cypress Urgent Care"}},"geometry":{"type":"Point","coordinates":[-118.0125477,33.8019498]}},{"type":"Feature","properties":{"id":"osm-node-5695391042","osm_type":"node","osm_id":5695391042,"category":"hospitals","name":"BHC","operator":null,"ref":null,"tags":{"amenity":"clinic","healthcare":"clinic","name":"BHC"}},"geometry":{"type":"Point","coordinates":[-118.335591,34.023317]}},{"type":"Feature","properties":{"id":"osm-node-5695396194","osm_type":"node","osm_id":5695396194,"category":"hospitals","name":"Santa Ana Women's Clinic","operator":null,"ref":null,"tags":{"amenity":"clinic","healthcare":"clinic","name":"Santa Ana Women's Clinic"}},"geometry":{"type":"Point","coordinates":[-118.3098525,34.0440821]}},{"type":"Feature","properties":{"id":"osm-node-5767441190","osm_type":"node","osm_id":5767441190,"category":"hospitals","name":"Cedar Sinai Clinic","operator":null,"ref":null,"tags":{"amenity":"clinic","healthcare":"clinic","name":"Cedar Sinai Clinic"}},"geometry":{"type":"Point","coordinates":[-118.4169849,33.9768057]}},{"type":"Feature","properties":{"id":"osm-node-5853191792","osm_type":"node","osm_id":5853191792,"category":"hospitals","name":"Brentview Medical Urgent Care","operator":null,"ref":null,"tags":{"addr:city":"West Hollywood","addr:housenumber":"8264","addr:postcode":"90046","addr:state":"CA","addr:street":"Santa Monica Boulevard","amenity":"clinic","healthcare":"clinic","name":"Brentview Medical Urgent Care"}},"geometry":{"type":"Point","coordinates":[-118.3693103,34.0905442]}},{"type":"Feature","properties":{"id":"osm-node-6038284220","osm_type":"node","osm_id":6038284220,"category":"hospitals","name":"VA Clinic","operator":"VA","ref":null,"tags":{"amenity":"clinic","healthcare":"clinic","healthcare:for":"veteran","name":"VA Clinic","operator":"VA","operator:type":"government","operator:wikidata":"Q6580225","short_name":"VA"}},"geometry":{"type":"Point","coordinates":[-118.1189865,33.7766396]}},{"type":"Feature","properties":{"id":"osm-node-6144260061","osm_type":"node","osm_id":6144260061,"category":"hospitals","name":"Sports Chiropractic","operator":null,"ref":null,"tags":{"amenity":"clinic","healthcare":"clinic","name":"Sports Chiropractic"}},"geometry":{"type":"Point","coordinates":[-118.1176574,33.8597698]}},{"type":"Feature","properties":{"id":"osm-node-6206090191","osm_type":"node","osm_id":6206090191,"category":"hospitals","name":"Manchester Urgent Care","operator":null,"ref":null,"tags":{"addr:city":"Los Angeles","addr:housenumber":"6222","addr:postcode":"90045","addr:state":"CA","addr:street":"West Manchester Avenue","addr:unit":"A","amenity":"clinic","email":"manchesterurgentcare@gmail.com","fax":"+1 310-670-4016","healthcare":"clinic","healthcare:speciality":"urgent","name":"Manchester Urgent Care","phone":"+1 310-670-0230","smoking":"no","website":"https://www.urgent-care-los-angeles.com/"}},"geometry":{"type":"Point","coordinates":[-118.394423,33.9596255]}},{"type":"Feature","properties":{"id":"osm-node-6322407377","osm_type":"node","osm_id":6322407377,"category":"hospitals","name":"Kaiser Permanente","operator":null,"ref":null,"tags":{"amenity":"hospital","entrance":"emergency","healthcare":"hospital","name":"Kaiser Permanente"}},"geometry":{"type":"Point","coordinates":[-118.5895399,34.1707705]}},{"type":"Feature","properties":{"id":"osm-node-6346087625","osm_type":"node","osm_id":6346087625,"category":"hospitals","name":"Van Nuys Urgent Care Family Medicine","operator":null,"ref":null,"tags":{"addr:floor":"1","addr:housenumber":"7211","addr:street":"Van Nuys Boulevard","amenity":"clinic","check_date":"2025-09-28","healthcare":"clinic","level":"0","name":"Van Nuys Urgent Care Family Medicine","walk-in":"yes","wheelchair":"yes"}},"geometry":{"type":"Point","coordinates":[-118.449009,34.2017488]}},{"type":"Feature","properties":{"id":"osm-node-6375249610","osm_type":"node","osm_id":6375249610,"category":"hospitals","name":"Lumbar Restoration Health","operator":null,"ref":null,"tags":{"amenity":"clinic","healthcare":"clinic","name":"Lumbar Restoration Health"}},"geometry":{"type":"Point","coordinates":[-118.1429984,33.7963665]}},{"type":"Feature","properties":{"id":"osm-node-6376351338","osm_type":"node","osm_id":6376351338,"category":"hospitals","name":"The Children's Clinic","operator":null,"ref":null,"tags":{"addr:city":"Long Beach","addr:housenumber":"730","addr:postcode":"90802","addr:state":"CA","addr:street":"West 3rd Street","amenity":"clinic","healthcare":"clinic","name":"The Children's Clinic","website":"https://www.thechildrensclinic.org/"}},"geometry":{"type":"Point","coordinates":[-118.2008844,33.7696194]}},{"type":"Feature","properties":{"id":"osm-node-6415540957","osm_type":"node","osm_id":6415540957,"category":"hospitals","name":"Todd Cancer Center","operator":null,"ref":null,"tags":{"amenity":"hospital","healthcare":"hospital","name":"Todd Cancer Center"}},"geometry":{"type":"Point","coordinates":[-118.1889308,33.8076912]}},{"type":"Feature","properties":{"id":"osm-node-6433254785","osm_type":"node","osm_id":6433254785,"category":"hospitals","name":null,"operator":null,"ref":null,"tags":{"amenity":"clinic","healthcare":"clinic"}},"geometry":{"type":"Point","coordinates":[-118.1632389,33.9505568]}},{"type":"Feature","properties":{"id":"osm-node-6501198654","osm_type":"node","osm_id":6501198654,"category":"hospitals","name":"Planned Parenthood","operator":"Planned Parenthood","ref":null,"tags":{"amenity":"clinic","brand":"Planned Parenthood","brand:wikidata":"Q2553262","healthcare":"counselling","healthcare:counselling":"antenatal;sexual","name":"Planned Parenthood","operator":"Planned Parenthood","operator:wikidata":"Q2553262","operator:wikipedia":"en:Planned Parenthood"}},"geometry":{"type":"Point","coordinates":[-118.124152,33.847491]}},{"type":"Feature","properties":{"id":"osm-node-6573391393","osm_type":"node","osm_id":6573391393,"category":"hospitals","name":null,"operator":null,"ref":null,"tags":{"amenity":"clinic","healthcare":"clinic"}},"geometry":{"type":"Point","coordinates":[-118.3875011,33.8174224]}},{"type":"Feature","properties":{"id":"osm-node-6702051051","osm_type":"node","osm_id":6702051051,"category":"hospitals","name":"CVS minute clinic","operator":"CVS","ref":null,"tags":{"amenity":"clinic","healthcare":"clinic","level":"0","name":"CVS minute clinic","opening_hours":"Mo-Fr 08:00-19:00; Sa-Su 09:00-17:30","operator":"CVS"}},"geometry":{"type":"Point","coordinates":[-118.0567473,34.1235754]}},{"type":"Feature","properties":{"id":"osm-node-7039475796","osm_type":"node","osm_id":7039475796,"category":"hospitals","name":"Jeffrey Goodman Clinic","operator":"Los Angeles LGBT Center","ref":null,"tags":{"amenity":"clinic","healthcare":"clinic","healthcare:speciality":"transHRT;wikidata=Q5903802","name":"Jeffrey Goodman Clinic","operator":"Los Angeles LGBT Center"}},"geometry":{"type":"Point","coordinates":[-118.3327573,34.1005023]}},{"type":"Feature","properties":{"id":"osm-node-7132056562","osm_type":"node","osm_id":7132056562,"category":"hospitals","name":"A-1 Home Health Services, Inc","operator":null,"ref":null,"tags":{"amenity":"clinic","healthcare":"clinic","name":"A-1 Home Health Services, Inc"}},"geometry":{"type":"Point","coordinates":[-118.6614756,34.2651779]}},{"type":"Feature","properties":{"id":"osm-node-7142291753","osm_type":"node","osm_id":7142291753,"category":"hospitals","name":"medical offices","operator":null,"ref":null,"tags":{"amenity":"clinic","healthcare":"clinic","name":"medical offices"}},"geometry":{"type":"Point","coordinates":[-118.1060797,33.7453093]}},{"type":"Feature","properties":{"id":"osm-node-7902254459","osm_type":"node","osm_id":7902254459,"category":"hospitals","name":"Carbon Health Urgent Care","operator":"Carbon Health","ref":null,"tags":{"addr:city":"Lakewood","addr:housenumber":"3559","addr:postcode":"90712","addr:state":"CA","addr:street":"East South Street","amenity":"clinic","brand":"Carbon Health","brand:wikidata":"Q110076263","healthcare":"clinic","name":"Carbon Health Urgent Care","operator":"Carbon Health","operator:wikidata":"Q110076263"}},"geometry":{"type":"Point","coordinates":[-118.149522,33.8608264]}},{"type":"Feature","properties":{"id":"osm-node-8290346383","osm_type":"node","osm_id":8290346383,"category":"hospitals","name":"Urgent Care at Vermont","operator":null,"ref":null,"tags":{"amenity":"clinic","healthcare":"clinic","name":"Urgent Care at Vermont"}},"geometry":{"type":"Point","coordinates":[-118.2915449,34.0942312]}},{"type":"Feature","properties":{"id":"osm-node-8290346384","osm_type":"node","osm_id":8290346384,"category":"hospitals","name":"Vermont Health Care Center","operator":null,"ref":null,"tags":{"amenity":"clinic","healthcare":"clinic","name":"Vermont Health Care Center"}},"geometry":{"type":"Point","coordinates":[-118.291543,34.0943666]}},{"type":"Feature","properties":{"id":"osm-node-8290346389","osm_type":"node","osm_id":8290346389,"category":"hospitals","name":"Clinica Medica San Miguel","operator":null,"ref":null,"tags":{"addr:city":"Los Angeles","addr:housenumber":"1101","addr:postcode":"90029","addr:state":"CA","addr:street":"Vermont Avenue","amenity":"clinic","healthcare":"clinic","name":"Clinica Medica San Miguel"}},"geometry":{"type":"Point","coordinates":[-118.291952,34.0911212]}},{"type":"Feature","properties":{"id":"osm-node-8290346390","osm_type":"node","osm_id":8290346390,"category":"hospitals","name":"Los Angeles Medical Diagnostics","operator":null,"ref":null,"tags":{"addr:city":"Los Angeles","addr:housenumber":"1125","addr:postcode":"90029","addr:state":"CA","addr:street":"Vermont Avenue","amenity":"clinic","healthcare":"clinic","name":"Los Angeles Medical Diagnostics"}},"geometry":{"type":"Point","coordinates":[-118.2919519,34.0915603]}},{"type":"Feature","properties":{"id":"osm-node-8290346399","osm_type":"node","osm_id":8290346399,"category":"hospitals","name":"Fountain Medical Clinic","operator":null,"ref":null,"tags":{"addr:city":"Los Angeles","addr:housenumber":"1155","addr:postcode":"90029","addr:state":"CA","addr:street":"Vermont Avenue","addr:unit":"202","amenity":"clinic","healthcare":"clinic","name":"Fountain Medical Clinic"}},"geometry":{"type":"Point","coordinates":[-118.291953,34.0925083]}},{"type":"Feature","properties":{"id":"osm-node-8290346400","osm_type":"node","osm_id":8290346400,"category":"hospitals","name":"The Doctor's - Los Angeles - Medical Clinic","operator":null,"ref":null,"tags":{"addr:city":"Los Angeles","addr:housenumber":"1155","addr:postcode":"90029","addr:state":"CA","addr:street":"Vermont Avenue","addr:unit":"200","amenity":"clinic","healthcare":"clinic","name":"The Doctor's - Los Angeles - Medical Clinic"}},"geometry":{"type":"Point","coordinates":[-118.291953,34.0925466]}},{"type":"Feature","properties":{"id":"osm-node-8322266869","osm_type":"node","osm_id":8322266869,"category":"hospitals","name":"UCLA Health West LA Pediatrics","operator":"UCLA Health","ref":null,"tags":{"amenity":"clinic","check_date":"2025-07-22","healthcare":"clinic","healthcare:speciality":"paediatrics","name":"UCLA Health West LA Pediatrics","operator":"UCLA Health","operator:wikidata":"Q18394900"}},"geometry":{"type":"Point","coordinates":[-118.43185,34.0255408]}},{"type":"Feature","properties":{"id":"osm-node-8328997928","osm_type":"node","osm_id":8328997928,"category":"hospitals","name":"Mar Vista Urgent Care","operator":null,"ref":null,"tags":{"amenity":"clinic","healthcare":"clinic","name":"Mar Vista Urgent Care"}},"geometry":{"type":"Point","coordinates":[-118.4238489,34.0087697]}},{"type":"Feature","properties":{"id":"osm-node-8347479205","osm_type":"node","osm_id":8347479205,"category":"hospitals","name":"Exer Urgent Care","operator":null,"ref":null,"tags":{"addr:housenumber":"8985","addr:street":"Venice Boulevard","addr:unit":"A-3B","amenity":"clinic","healthcare":"clinic","name":"Exer Urgent Care","opening_hours":"Mo-Su 08:00-20:00"}},"geometry":{"type":"Point","coordinates":[-118.392139,34.0277764]}},{"type":"Feature","properties":{"id":"osm-node-8379778593","osm_type":"node","osm_id":8379778593,"category":"hospitals","name":"One Medical","operator":"1Life Healthcare","ref":null,"tags":{"amenity":"clinic","branch":"Group","healthcare":"clinic","healthcare:speciality":"urgent","level":"1","name":"One Medical","operator":"1Life Healthcare","operator:type":"private","operator:wikidata":"Q85727717","operator:wikipedia":"en:1Life Healthcare"}},"geometry":{"type":"Point","coordinates":[-118.4187293,34.0576724]}},{"type":"Feature","properties":{"id":"osm-node-8403520477","osm_type":"node","osm_id":8403520477,"category":"hospitals","name":"West Washington Internal Medicine","operator":"UCLA Health","ref":null,"tags":{"addr:housenumber":"11303, suite 100","addr:street":"west washington blvd","amenity":"clinic","healthcare":"clinic","name":"West Washington Internal Medicine","operator":"UCLA Health","operator:wikidata":"Q18394900","phone":"+1-310-391-7281"}},"geometry":{"type":"Point","coordinates":[-118.414946,34.0041643]}},{"type":"Feature","properties":{"id":"osm-node-8416416070","osm_type":"node","osm_id":8416416070,"category":"hospitals","name":"Dr. Boris Plastic Surgery","operator":null,"ref":null,"tags":{"addr:housenumber":"9700","addr:street":"Venice Boulevard","amenity":"clinic","healthcare":"clinic","healthcare:speciality":"plastic_surgery","name":"Dr. Boris Plastic Surgery"}},"geometry":{"type":"Point","coordinates":[-118.396891,34.0241218]}},{"type":"Feature","properties":{"id":"osm-node-8416416071","osm_type":"node","osm_id":8416416071,"category":"hospitals","name":"Exer Urgent Care","operator":null,"ref":null,"tags":{"amenity":"clinic","healthcare":"clinic","healthcare:speciality":"urgent","name":"Exer Urgent Care","opening_hours":"Mo-Su 08:00-20:00"}},"geometry":{"type":"Point","coordinates":[-118.3972899,34.0238512]}},{"type":"Feature","properties":{"id":"osm-node-8419727960","osm_type":"node","osm_id":8419727960,"category":"hospitals","name":"Santa Monica Fertility","operator":null,"ref":null,"tags":{"addr:city":"Santa Monica","addr:housenumber":"2825","addr:postcode":"90404","addr:state":"CA","addr:street":"Santa Monica Boulevard","addr:unit":"100","amenity":"clinic","healthcare":"clinic","healthcare:speciality":"fertility","name":"Santa Monica Fertility","phone":"+1-310-566-1470","website":"https://www.santamonicafertility.com/"}},"geometry":{"type":"Point","coordinates":[-118.4719696,34.0355704]}},{"type":"Feature","properties":{"id":"osm-node-8422916820","osm_type":"node","osm_id":8422916820,"category":"hospitals","name":"UCLA Health Santa Monica Cancer Care","operator":"UCLA Health","ref":null,"tags":{"addr:city":"Santa Monica","amenity":"clinic","healthcare":"clinic","healthcare:speciality":"oncology","name":"UCLA Health Santa Monica Cancer Care","operator":"UCLA Health","operator:type":"university","operator:wikidata":"Q18394900"}},"geometry":{"type":"Point","coordinates":[-118.479514,34.0287654]}},{"type":"Feature","properties":{"id":"osm-node-8430422167","osm_type":"node","osm_id":8430422167,"category":"hospitals","name":"Cedars-Sinai Urgent Care","operator":"Cedars-Sinai","ref":null,"tags":{"amenity":"clinic","healthcare":"clinic","healthcare:speciality":"urgent","name":"Cedars-Sinai Urgent Care","operator":"Cedars-Sinai"}},"geometry":{"type":"Point","coordinates":[-118.397828,34.01939]}},{"type":"Feature","properties":{"id":"osm-node-8444283944","osm_type":"node","osm_id":8444283944,"category":"hospitals","name":"Santa Monica Wilshire Immediate Care","operator":"UCLA Health","ref":null,"tags":{"amenity":"clinic","healthcare":"clinic","healthcare:speciality":"urgent","name":"Santa Monica Wilshire Immediate Care","operator":"UCLA Health","operator:type":"university","operator:wikidata":"Q18394900"}},"geometry":{"type":"Point","coordinates":[-118.479083,34.0344853]}},{"type":"Feature","properties":{"id":"osm-node-8519665340","osm_type":"node","osm_id":8519665340,"category":"hospitals","name":"EndoCare Center, Endodontic Office of Dr. John Yu","operator":"Dr. John Yu","ref":null,"tags":{"addr:city":"San Gabriel","addr:housenumber":"416","addr:postcode":"91776","addr:state":"CA","addr:street":"West Las Tunas Drive","addr:unit":"203","amenity":"hospital","check_date":"2025-10-12","contact:yelp":"https://www.yelp.com/biz/endocare-center-san-gabriel","email":"info@endocarecenter.com","healthcare":"dentist","healthcare:speciality":"dentist;endodontics","name":"EndoCare Center, Endodontic Office of Dr. John Yu","operator":"Dr. John Yu","operator:type":"business","phone":"+1 626-678-0167","website":"https://www.endocarecenter.com/"}},"geometry":{"type":"Point","coordinates":[-118.1046952,34.102044]}},{"type":"Feature","properties":{"id":"osm-node-8641802315","osm_type":"node","osm_id":8641802315,"category":"hospitals","name":"Venice Family Clinic","operator":null,"ref":null,"tags":{"amenity":"clinic","healthcare":"clinic","healthcare:speciality":"family_medicine","name":"Venice Family Clinic"}},"geometry":{"type":"Point","coordinates":[-118.4141854,33.9938338]}},{"type":"Feature","properties":{"id":"osm-node-8699215355","osm_type":"node","osm_id":8699215355,"category":"hospitals","name":"One Medical","operator":"1Life Healthcare","ref":null,"tags":{"amenity":"clinic","healthcare":"clinic","level":"0","name":"One Medical","operator":"1Life Healthcare","operator:type":"private","operator:wikidata":"Q85727717"}},"geometry":{"type":"Point","coordinates":[-118.3972553,34.0208329]}},{"type":"Feature","properties":{"id":"osm-node-8744600140","osm_type":"node","osm_id":8744600140,"category":"hospitals","name":"Wave Imaging","operator":null,"ref":null,"tags":{"addr:city":"Signal Hill","addr:housenumber":"2708","addr:postcode":"90755","addr:state":"CA","addr:street":"Willow Street","amenity":"clinic","healthcare":"clinic","name":"Wave Imaging","phone":"+1-562-299-6245"}},"geometry":{"type":"Point","coordinates":[-118.1593003,33.8039426]}},{"type":"Feature","properties":{"id":"osm-node-8766213874","osm_type":"node","osm_id":8766213874,"category":"hospitals","name":"Overland Intensive Outpatient","operator":null,"ref":null,"tags":{"amenity":"clinic","healthcare":"clinic","healthcare:speciality":"psychiatry","name":"Overland Intensive Outpatient"}},"geometry":{"type":"Point","coordinates":[-118.4124771,34.0255662]}},{"type":"Feature","properties":{"id":"osm-node-8792618893","osm_type":"node","osm_id":8792618893,"category":"hospitals","name":"Sanchez Medical Center","operator":null,"ref":null,"tags":{"addr:housenumber":"3529","addr:street":"Firestone Boulevard","amenity":"clinic","healthcare":"clinic","name":"Sanchez Medical Center"}},"geometry":{"type":"Point","coordinates":[-118.2049652,33.9543032]}},{"type":"Feature","properties":{"id":"osm-node-8829483405","osm_type":"node","osm_id":8829483405,"category":"hospitals","name":"Urgent Care","operator":null,"ref":null,"tags":{"amenity":"clinic","healthcare":"clinic","name":"Urgent Care","opening_hours":"Mo-Su 08:00-20:00"}},"geometry":{"type":"Point","coordinates":[-118.2177667,34.1281744]}},{"type":"Feature","properties":{"id":"osm-node-8831156390","osm_type":"node","osm_id":8831156390,"category":"hospitals","name":"Covid Testing (PCR 30 mins)","operator":"911 Covid Testing, Inc.","ref":null,"tags":{"addr:city":"Los Angeles","addr:housenumber":"11461","addr:postcode":"90049","addr:state":"CA","addr:street":"Sunset Boulevard","amenity":"hospital","description":"CLIA Approved COVID Testing with PCR in 30 Mins","email":"info@911covidtesting.com","healthcare":"hospital","healthcare:speciality":"covid19","image":"https://911covidtesting.com/","name":"Covid Testing (PCR 30 mins)","operator":"911 Covid Testing, Inc.","operator:type":"public","phone":"+1-310-569-5784","website":"https://911covidtesting.com/","wheelchair":"yes"}},"geometry":{"type":"Point","coordinates":[-118.4682968,34.0723695]}},{"type":"Feature","properties":{"id":"osm-node-8923216731","osm_type":"node","osm_id":8923216731,"category":"hospitals","name":"DaVita Dialysis","operator":"DaVita Dialysis","ref":"430","tags":{"addr:city":"Los Angeles","addr:housenumber":"10630","addr:postcode":"90025-4837","addr:state":"CA","addr:street":"Santa Monica Boulevard","amenity":"clinic","branch":"Century City","brand":"DaVita Dialysis","brand:wikidata":"Q5207184","check_date":"2025-12-23","contact:yelp":"https://www.yelp.com/biz/davita-century-city-dialysis-los-angeles","fax":"+1 310-474-4565","healthcare":"dialysis","healthcare:speciality":"nephrology","name":"DaVita Dialysis","operator":"DaVita Dialysis","operator:type":"private","operator:wikidata":"Q5207184","operator:wikipedia":"de:DaVita","phone":"+1-800-424-6589","ref":"430","website":"https://davita.com/locations/ca/los-angeles/10630-santa-monica-blvd--430/"}},"geometry":{"type":"Point","coordinates":[-118.430327,34.0527807]}},{"type":"Feature","properties":{"id":"osm-node-9008836961","osm_type":"node","osm_id":9008836961,"category":"hospitals","name":"California Rehabilitation Institute","operator":null,"ref":null,"tags":{"amenity":"hospital","check_date":"2024-05-10","healthcare":"hospital","name":"California Rehabilitation Institute"}},"geometry":{"type":"Point","coordinates":[-118.4117451,34.0591305]}},{"type":"Feature","properties":{"id":"osm-node-9046292236","osm_type":"node","osm_id":9046292236,"category":"hospitals","name":"West Los Angeles Urgent Care","operator":null,"ref":null,"tags":{"amenity":"clinic","healthcare":"clinic","healthcare:speciality":"urgent","name":"West Los Angeles Urgent Care"}},"geometry":{"type":"Point","coordinates":[-118.443034,34.0328038]}},{"type":"Feature","properties":{"id":"osm-node-9071696421","osm_type":"node","osm_id":9071696421,"category":"hospitals","name":"Providence Little Company of Mary Outpatient Rehabilitation Center","operator":"Providence Health & Services","ref":null,"tags":{"addr:housenumber":"21135","addr:state":"CA","addr:street":"Hawthorne Boulevard","amenity":"clinic","healthcare":"clinic","name":"Providence Little Company of Mary Outpatient Rehabilitation Center","opening_hours":"Mo-Fr 08:00-16:30","operator":"Providence Health & Services","operator:wikidata":"Q7252430","operator:wikipedia":"en:Providence Health & Services"}},"geometry":{"type":"Point","coordinates":[-118.3554976,33.8385279]}},{"type":"Feature","properties":{"id":"osm-node-9074693762","osm_type":"node","osm_id":9074693762,"category":"hospitals","name":"Dr. Paul's Immediate Care","operator":null,"ref":null,"tags":{"amenity":"clinic","healthcare":"clinic","name":"Dr. Paul's Immediate Care"}},"geometry":{"type":"Point","coordinates":[-118.3792102,33.8726641]}},{"type":"Feature","properties":{"id":"osm-node-9089400360","osm_type":"node","osm_id":9089400360,"category":"hospitals","name":"Carbon Health","operator":"Carbon Health","ref":null,"tags":{"addr:housenumber":"415","addr:street":"Pacific Coast Highway","amenity":"clinic","brand":"Carbon Health","brand:wikidata":"Q110076263","healthcare":"clinic","name":"Carbon Health","operator":"Carbon Health","operator:type":"private","operator:wikidata":"Q110076263","website":"https://carbonhealth.com/"}},"geometry":{"type":"Point","coordinates":[-118.38867,33.8479856]}},{"type":"Feature","properties":{"id":"osm-node-9095723922","osm_type":"node","osm_id":9095723922,"category":"hospitals","name":"UCLA Health","operator":"UCLA Health","ref":null,"tags":{"amenity":"clinic","healthcare":"clinic","name":"UCLA Health","operator":"UCLA Health","operator:wikidata":"Q18394900"}},"geometry":{"type":"Point","coordinates":[-118.379262,33.8535886]}},{"type":"Feature","properties":{"id":"osm-node-9201317839","osm_type":"node","osm_id":9201317839,"category":"hospitals","name":"Beach Cities Cancer Care","operator":null,"ref":null,"tags":{"amenity":"clinic","healthcare":"clinic","name":"Beach Cities Cancer Care"}},"geometry":{"type":"Point","coordinates":[-118.3789781,33.8523834]}},{"type":"Feature","properties":{"id":"osm-node-9211554934","osm_type":"node","osm_id":9211554934,"category":"hospitals","name":"Joshua House Health Center","operator":"Los Angeles Christian Health Center","ref":null,"tags":{"addr:city":"Los Angeles","addr:housenumber":"325","addr:postcode":"90014","addr:state":"CA","addr:street":"East 7th Street","amenity":"hospital","emergency":"no","healthcare":"hospital","healthcare:speciality":"dentist;psychiatry;optometry;social_serv;medical","name":"Joshua House Health Center","operator":"Los Angeles Christian Health Center","operator:type":"community","phone":"+1-213-893-1960"}},"geometry":{"type":"Point","coordinates":[-118.2485451,34.0421489]}},{"type":"Feature","properties":{"id":"osm-node-9251612729","osm_type":"node","osm_id":9251612729,"category":"hospitals","name":"UCLA Health","operator":"UCLA Health","ref":null,"tags":{"amenity":"clinic","healthcare":"clinic","name":"UCLA Health","opening_hours":"Mo-Fr 08:00-17:00; Sa-Su off","operator":"UCLA Health","operator:wikidata":"Q18394900","website":"https://www.uclahealth.org/locations/manhattan-beach-primary-care"}},"geometry":{"type":"Point","coordinates":[-118.39634,33.89496]}},{"type":"Feature","properties":{"id":"osm-node-9313368240","osm_type":"node","osm_id":9313368240,"category":"hospitals","name":"Pediatric Associates Medical Group","operator":null,"ref":null,"tags":{"addr:city":"Sherman Oaks","addr:housenumber":"4330","addr:postcode":"91423","addr:state":"CA","addr:street":"Fulton Avenue","amenity":"clinic","email":"admin@pamgdocs.com","healthcare":"clinic","healthcare:speciality":"pediatric","name":"Pediatric Associates Medical Group","opening_hours":"Mo-Fr 08:00-12:00,14:00-17:00; Sa 08:00-12:00; Su off","phone":"+1-818-784-1102","website":"https://www.pamgdocs.com/"}},"geometry":{"type":"Point","coordinates":[-118.4221972,34.149583]}},{"type":"Feature","properties":{"id":"osm-node-9322149964","osm_type":"node","osm_id":9322149964,"category":"hospitals","name":"UCLA Health Radiology","operator":"UCLA Health","ref":null,"tags":{"amenity":"clinic","healthcare":"clinic","name":"UCLA Health Radiology","operator":"UCLA Health","operator:wikidata":"Q18394900"}},"geometry":{"type":"Point","coordinates":[-118.395767,33.893242]}},{"type":"Feature","properties":{"id":"osm-node-9349933747","osm_type":"node","osm_id":9349933747,"category":"hospitals","name":"California Medical Wellness","operator":null,"ref":null,"tags":{"addr:street":"Redondo Beach Boulevard","amenity":"clinic","healthcare":"clinic","healthcare:speciality":"weight_loss","name":"California Medical Wellness","opening_hours":"Mo-Fr 08:30-19:00; Sa 08:30-16:00; Su off"}},"geometry":{"type":"Point","coordinates":[-118.3512456,33.8741921]}},{"type":"Feature","properties":{"id":"osm-node-9349963635","osm_type":"node","osm_id":9349963635,"category":"hospitals","name":"Crenshaw Medical Group","operator":null,"ref":null,"tags":{"amenity":"clinic","healthcare":"clinic","name":"Crenshaw Medical Group"}},"geometry":{"type":"Point","coordinates":[-118.3267103,33.8716308]}},{"type":"Feature","properties":{"id":"osm-node-9351058215","osm_type":"node","osm_id":9351058215,"category":"hospitals","name":null,"operator":null,"ref":null,"tags":{"amenity":"clinic","healthcare":"clinic"}},"geometry":{"type":"Point","coordinates":[-118.1245454,33.8722305]}},{"type":"Feature","properties":{"id":"osm-node-9354752202","osm_type":"node","osm_id":9354752202,"category":"hospitals","name":"Lolachi","operator":null,"ref":null,"tags":{"amenity":"clinic","healthcare":"clinic","healthcare:speciality":"weight_loss","level":"0","name":"Lolachi"}},"geometry":{"type":"Point","coordinates":[-118.3539716,33.8737353]}},{"type":"Feature","properties":{"id":"osm-node-9392829843","osm_type":"node","osm_id":9392829843,"category":"hospitals","name":"US Renal Care/South Bay Dialysis","operator":null,"ref":null,"tags":{"amenity":"clinic","healthcare":"clinic","healthcare:speciality":"dialysis","name":"US Renal Care/South Bay Dialysis"}},"geometry":{"type":"Point","coordinates":[-118.3541461,33.8652757]}},{"type":"Feature","properties":{"id":"osm-node-9406251412","osm_type":"node","osm_id":9406251412,"category":"hospitals","name":"Dermfx","operator":null,"ref":null,"tags":{"amenity":"clinic","healthcare":"clinic","healthcare:speciality":"dermatology","name":"Dermfx"}},"geometry":{"type":"Point","coordinates":[-118.3850147,33.8350942]}},{"type":"Feature","properties":{"id":"osm-node-9406859017","osm_type":"node","osm_id":9406859017,"category":"hospitals","name":"911 COVID test","operator":null,"ref":null,"tags":{"amenity":"clinic","name":"911 COVID test"}},"geometry":{"type":"Point","coordinates":[-118.3957199,33.9471975]}},{"type":"Feature","properties":{"id":"osm-node-9423765026","osm_type":"node","osm_id":9423765026,"category":"hospitals","name":"Carbon Health","operator":"Carbon Health","ref":null,"tags":{"amenity":"clinic","brand":"Carbon Health","brand:wikidata":"Q110076263","healthcare":"clinic","healthcare:speciality":"urgent","name":"Carbon Health","operator":"Carbon Health","operator:type":"private","operator:wikidata":"Q110076263"}},"geometry":{"type":"Point","coordinates":[-118.389696,34.0282567]}},{"type":"Feature","properties":{"id":"osm-node-9429658572","osm_type":"node","osm_id":9429658572,"category":"hospitals","name":"Clinic Care by Kaiser Permanente","operator":"Kaiser Permanente","ref":null,"tags":{"amenity":"clinic","healthcare":"clinic","level":"1","name":"Clinic Care by Kaiser Permanente","opening_hours":"Mo-Fr 09:00-13:30,14:30-19:00; Sa-Su 11:00-14:00,14:30-16:00","operator":"Kaiser Permanente","operator:short":"KP","operator:website":"https://healthy.kaiserpermanente.org/","operator:wikidata":"Q1721601","operator:wikipedia":"en:Kaiser Permanente"}},"geometry":{"type":"Point","coordinates":[-118.357465,33.8687532]}},{"type":"Feature","properties":{"id":"osm-node-9438017617","osm_type":"node","osm_id":9438017617,"category":"hospitals","name":"Hubert H. Humphrey Comprehensive Health Center","operator":null,"ref":null,"tags":{"addr:housenumber":"5850","addr:postcode":"90003","addr:street":"South Main Street","amenity":"hospital","healthcare":"hospital","internet_access":"wlan","name":"Hubert H. Humphrey Comprehensive Health Center","website":"https://dhs.lacounty.gov/humphrey/"}},"geometry":{"type":"Point","coordinates":[-118.273426,33.9886634]}},{"type":"Feature","properties":{"id":"osm-node-9522875557","osm_type":"node","osm_id":9522875557,"category":"hospitals","name":"US Renal Care Carson Dialysis","operator":null,"ref":null,"tags":{"amenity":"clinic","healthcare":"clinic","healthcare:speciality":"dialysis","name":"US Renal Care Carson Dialysis"}},"geometry":{"type":"Point","coordinates":[-118.2586479,33.840034]}},{"type":"Feature","properties":{"id":"osm-node-9522875560","osm_type":"node","osm_id":9522875560,"category":"hospitals","name":"S. Dahiya Medical Group","operator":null,"ref":null,"tags":{"amenity":"clinic","healthcare":"clinic","name":"S. Dahiya Medical Group"}},"geometry":{"type":"Point","coordinates":[-118.2587158,33.8394018]}},{"type":"Feature","properties":{"id":"osm-node-9526135785","osm_type":"node","osm_id":9526135785,"category":"hospitals","name":"UCLA Health","operator":"UCLA Health","ref":null,"tags":{"amenity":"clinic","healthcare":"clinic","level":"2","name":"UCLA Health","operator":"UCLA Health","operator:type":"university","operator:wikidata":"Q18394900"}},"geometry":{"type":"Point","coordinates":[-118.417633,34.0583089]}},{"type":"Feature","properties":{"id":"osm-node-9531412551","osm_type":"node","osm_id":9531412551,"category":"hospitals","name":"Skin Code LA","operator":null,"ref":null,"tags":{"addr:city":"Los Angeles","addr:housenumber":"4214","addr:postcode":"90004","addr:state":"CA","addr:street":"Beverly Boulevard","addr:unit":"202","amenity":"clinic","email":"info@skincodela.com","healthcare":"doctor","healthcare:speciality":"dermatology","name":"Skin Code LA","phone":"+1-213-384-3800","website":"https://www.skincodela.com/"}},"geometry":{"type":"Point","coordinates":[-118.300826,34.0759223]}},{"type":"Feature","properties":{"id":"osm-node-9547911625","osm_type":"node","osm_id":9547911625,"category":"hospitals","name":"Fresenius Kidney Care","operator":"Fresenius Kidney Care","ref":null,"tags":{"amenity":"clinic","healthcare":"dialysis","healthcare:speciality":"dialysis","name":"Fresenius Kidney Care","operator":"Fresenius Kidney Care","operator:wikidata":"Q650259","operator:wikipedia":"en:Fresenius Medical Care"}},"geometry":{"type":"Point","coordinates":[-118.3956029,34.024825]}},{"type":"Feature","properties":{"id":"osm-node-9601993685","osm_type":"node","osm_id":9601993685,"category":"hospitals","name":null,"operator":null,"ref":null,"tags":{"amenity":"clinic","healthcare":"clinic","level":"2"}},"geometry":{"type":"Point","coordinates":[-118.3735807,33.7727051]}},{"type":"Feature","properties":{"id":"osm-node-9601993687","osm_type":"node","osm_id":9601993687,"category":"hospitals","name":"UCLA Health","operator":"UCLA Health","ref":null,"tags":{"amenity":"clinic","healthcare":"clinic","name":"UCLA Health","operator":"UCLA Health","operator:wikidata":"Q18394900"}},"geometry":{"type":"Point","coordinates":[-118.375116,33.772525]}},{"type":"Feature","properties":{"id":"osm-node-9623216955","osm_type":"node","osm_id":9623216955,"category":"hospitals","name":"Hollywood Sunset Free Clinic","operator":null,"ref":null,"tags":{"addr:city":"Los Angeles","addr:housenumber":"3324","addr:postcode":"90026","addr:state":"CA","addr:street":"Sunset Boulevard","amenity":"clinic","check_date":"2024-09-29","description":"We provide free, quality medical and counseling services to people of all ages. We serve low-income, uninsured or under-insured individuals.","email":"HollywoodSunsetFreeClinic.1968@gmail.com","healthcare":"clinic","healthcare:speciality":"community;body;Immunizations","image":"https://external-content.duckduckgo.com/iu/?u=https%3A%2F%2Ftse2.mm.bing.net%2Fth%3Fid%3DOIP.LpIcTphwXqR5vOZTbk3_jwHaFj%26pid%3DApi&f=1&ipt=bbd4f9428f4e3d254e6e7ca524cddec7c46e36c87adb8678d8f4afcbb1e62273&ipo=images","name":"Hollywood Sunset Free Clinic","opening_hours":"Mo-Fr 10:00-19:00; Sa 09:00-13:00; Su off","operator:type":"private_non_profit","phone":"+1 323-660-2400","website":"https://www.hsfreeclinic.org/"}},"geometry":{"type":"Point","coordinates":[-118.275919,34.0870569]}},{"type":"Feature","properties":{"id":"osm-node-9642426604","osm_type":"node","osm_id":9642426604,"category":"hospitals","name":"Crenshaw Medical Center","operator":null,"ref":null,"tags":{"addr:city":"Los Angeles","addr:housenumber":"5141","addr:postcode":"90043","addr:state":"CA","addr:street":"Crenshaw Boulevard","amenity":"clinic","healthcare":"clinic","name":"Crenshaw Medical Center","opening_hours":"8:30-8"}},"geometry":{"type":"Point","coordinates":[-118.3312371,33.9955824]}},{"type":"Feature","properties":{"id":"osm-node-9647929104","osm_type":"node","osm_id":9647929104,"category":"hospitals","name":"Zdenek Eye Institute","operator":null,"ref":null,"tags":{"addr:city":"Reseda","addr:housenumber":"7012","addr:postcode":"91335","addr:state":"CA","addr:street":"Reseda Boulevard","amenity":"clinic","healthcare":"clinic","name":"Zdenek Eye Institute","opening_hours":"08:00-17:00"}},"geometry":{"type":"Point","coordinates":[-118.5358493,34.1980441]}},{"type":"Feature","properties":{"id":"osm-node-9670930571","osm_type":"node","osm_id":9670930571,"category":"hospitals","name":"afc Urgent Care & Family Care","operator":null,"ref":null,"tags":{"amenity":"clinic","healthcare":"clinic","name":"afc Urgent Care & Family Care","opening_hours":"Mo-Su 08:00-20:00"}},"geometry":{"type":"Point","coordinates":[-118.3286993,33.8045891]}},{"type":"Feature","properties":{"id":"osm-node-9686481806","osm_type":"node","osm_id":9686481806,"category":"hospitals","name":"Sameday Health","operator":null,"ref":null,"tags":{"addr:housenumber":"2407","addr:street":"Sepulveda Boulevard","amenity":"clinic","healthcare":"clinic","name":"Sameday Health"}},"geometry":{"type":"Point","coordinates":[-118.396356,33.8941833]}},{"type":"Feature","properties":{"id":"osm-node-9721701412","osm_type":"node","osm_id":9721701412,"category":"hospitals","name":"UCLA Health","operator":"UCLA Health","ref":null,"tags":{"amenity":"clinic","healthcare":"clinic","name":"UCLA Health","operator":"UCLA Health","operator:wikidata":"Q18394900"}},"geometry":{"type":"Point","coordinates":[-118.345259,33.802323]}},{"type":"Feature","properties":{"id":"osm-node-9767498281","osm_type":"node","osm_id":9767498281,"category":"hospitals","name":null,"operator":null,"ref":null,"tags":{"amenity":"clinic","healthcare":"clinic"}},"geometry":{"type":"Point","coordinates":[-118.334613,33.8794841]}},{"type":"Feature","properties":{"id":"osm-node-9778419151","osm_type":"node","osm_id":9778419151,"category":"hospitals","name":null,"operator":null,"ref":null,"tags":{"addr:housenumber":"20056","addr:street":"Hawthorne Boulevard","amenity":"clinic","healthcare":"clinic","healthcare:speciality":"osteopathy"}},"geometry":{"type":"Point","coordinates":[-118.3516168,33.8494791]}},{"type":"Feature","properties":{"id":"osm-node-9778419152","osm_type":"node","osm_id":9778419152,"category":"hospitals","name":"Providence ExpressCare","operator":null,"ref":null,"tags":{"addr:housenumber":"20054","addr:street":"Hawthorne Boulevard","amenity":"clinic","healthcare":"clinic","name":"Providence ExpressCare"}},"geometry":{"type":"Point","coordinates":[-118.3516184,33.8495641]}},{"type":"Feature","properties":{"id":"osm-node-9778438526","osm_type":"node","osm_id":9778438526,"category":"hospitals","name":null,"operator":null,"ref":null,"tags":{"amenity":"clinic","healthcare":"clinic","healthcare:speciality":"weight_loss"}},"geometry":{"type":"Point","coordinates":[-118.3518937,33.8500593]}},{"type":"Feature","properties":{"id":"osm-node-9797245844","osm_type":"node","osm_id":9797245844,"category":"hospitals","name":"Lou Colen Children's Health and Wellness Center","operator":null,"ref":null,"tags":{"amenity":"clinic","healthcare":"clinic","healthcare:speciality":"paediatrics","name":"Lou Colen Children's Health and Wellness Center"}},"geometry":{"type":"Point","coordinates":[-118.4140781,33.993963]}},{"type":"Feature","properties":{"id":"osm-node-9847112569","osm_type":"node","osm_id":9847112569,"category":"hospitals","name":"UCLA Health","operator":"UCLA Health","ref":null,"tags":{"amenity":"clinic","healthcare":"clinic","name":"UCLA Health","operator":"UCLA Health","operator:wikidata":"Q18394900"}},"geometry":{"type":"Point","coordinates":[-118.4416309,33.9827755]}},{"type":"Feature","properties":{"id":"osm-node-9854360073","osm_type":"node","osm_id":9854360073,"category":"hospitals","name":null,"operator":null,"ref":null,"tags":{"amenity":"clinic","healthcare":"clinic"}},"geometry":{"type":"Point","coordinates":[-118.0730042,33.8321849]}},{"type":"Feature","properties":{"id":"osm-node-9906973039","osm_type":"node","osm_id":9906973039,"category":"hospitals","name":"One Medical","operator":"1Life Healthcare","ref":null,"tags":{"amenity":"clinic","healthcare":"clinic","name":"One Medical","operator":"1Life Healthcare","operator:wikidata":"Q85727717"}},"geometry":{"type":"Point","coordinates":[-118.4920492,34.0165595]}},{"type":"Feature","properties":{"id":"osm-node-9908029055","osm_type":"node","osm_id":9908029055,"category":"hospitals","name":"Bluedoor","operator":null,"ref":null,"tags":{"amenity":"clinic","healthcare":"clinic","healthcare:speciality":"urgent","name":"Bluedoor"}},"geometry":{"type":"Point","coordinates":[-118.4260941,33.9970646]}},{"type":"Feature","properties":{"id":"osm-node-9938349596","osm_type":"node","osm_id":9938349596,"category":"hospitals","name":"Lasky Clinic","operator":null,"ref":null,"tags":{"amenity":"clinic","healthcare":"clinic","healthcare:speciality":"plastic_surgery","name":"Lasky Clinic"}},"geometry":{"type":"Point","coordinates":[-118.4104505,34.0648974]}},{"type":"Feature","properties":{"id":"osm-node-9938349829","osm_type":"node","osm_id":9938349829,"category":"hospitals","name":"Aaron Stone MD","operator":null,"ref":null,"tags":{"addr:city":"Beverly Hills","addr:housenumber":"120","addr:postcode":"90212","addr:state":"CA","addr:street":"South Spalding Drive","addr:unit":"330","amenity":"clinic","check_date":"2022-08-08","currency:XBT":"yes","healthcare":"clinic","healthcare:speciality":"plastic_surgery","name":"Aaron Stone MD","smoking":"no"}},"geometry":{"type":"Point","coordinates":[-118.408667,34.0662901]}},{"type":"Feature","properties":{"id":"osm-node-9994076672","osm_type":"node","osm_id":9994076672,"category":"hospitals","name":"Endocrine Care Specialists","operator":null,"ref":null,"tags":{"amenity":"clinic","healthcare":"clinic","healthcare:speciality":"endocrinology","name":"Endocrine Care Specialists"}},"geometry":{"type":"Point","coordinates":[-118.3201451,33.7994634]}},{"type":"Feature","properties":{"id":"osm-node-9994076677","osm_type":"node","osm_id":9994076677,"category":"hospitals","name":"Narbonne Multispecialty Medical Group","operator":null,"ref":null,"tags":{"amenity":"clinic","healthcare":"clinic","name":"Narbonne Multispecialty Medical Group"}},"geometry":{"type":"Point","coordinates":[-118.3201775,33.7983896]}},{"type":"Feature","properties":{"id":"osm-node-10025696240","osm_type":"node","osm_id":10025696240,"category":"hospitals","name":null,"operator":null,"ref":null,"tags":{"amenity":"clinic","healthcare":"clinic","healthcare:speciality":"fertility"}},"geometry":{"type":"Point","coordinates":[-118.3957465,33.8998358]}},{"type":"Feature","properties":{"id":"osm-node-10152088907","osm_type":"node","osm_id":10152088907,"category":"hospitals","name":"Breast Reduction Specialists of Los Angeles","operator":null,"ref":null,"tags":{"addr:city":"Beverly Hills","addr:housenumber":"416","addr:postcode":"90210","addr:state":"CA","addr:street":"North Bedford Drive","addr:unit":"400d","amenity":"clinic","email":"info@breastreductionspecialistslosangeles.com","healthcare":"clinic","healthcare:speciality":"plastic_surgery","name":"Breast Reduction Specialists of Los Angeles","opening_hours":"Mo-Fr 08:00-17:30","payment:american_express":"yes","payment:cash":"yes","payment:cheque":"yes","payment:discover_card":"yes","payment:financing":"yes","payment:mastercard":"yes","payment:visa":"yes","phone":"+1-310-289-3611","website":"https://www.breastreductionspecialistslosangeles.com"}},"geometry":{"type":"Point","coordinates":[-118.404893,34.0683756]}},{"type":"Feature","properties":{"id":"osm-node-10266321320","osm_type":"node","osm_id":10266321320,"category":"hospitals","name":"DaVita Dialysis","operator":"DaVita Dialysis","ref":null,"tags":{"amenity":"clinic","healthcare":"dialysis","healthcare:speciality":"nephrology","name":"DaVita Dialysis","operator":"DaVita Dialysis","operator:type":"private","operator:wikidata":"Q5207184"}},"geometry":{"type":"Point","coordinates":[-118.4639471,34.0472319]}},{"type":"Feature","properties":{"id":"osm-node-10266321321","osm_type":"node","osm_id":10266321321,"category":"hospitals","name":"Urgent-Med","operator":null,"ref":null,"tags":{"amenity":"clinic","healthcare":"clinic","healthcare:speciality":"urgent","name":"Urgent-Med"}},"geometry":{"type":"Point","coordinates":[-118.4636571,34.0469449]}},{"type":"Feature","properties":{"id":"osm-node-10272262964","osm_type":"node","osm_id":10272262964,"category":"hospitals","name":"Inglewood Imaging Center","operator":null,"ref":null,"tags":{"amenity":"clinic","healthcare":"clinic","name":"Inglewood Imaging Center"}},"geometry":{"type":"Point","coordinates":[-118.3441967,33.9649139]}},{"type":"Feature","properties":{"id":"osm-node-10272263524","osm_type":"node","osm_id":10272263524,"category":"hospitals","name":"Destiny Home Health Services Inc.","operator":null,"ref":null,"tags":{"amenity":"clinic","healthcare":"clinic","name":"Destiny Home Health Services Inc."}},"geometry":{"type":"Point","coordinates":[-118.3502009,33.967157]}},{"type":"Feature","properties":{"id":"osm-node-10272362937","osm_type":"node","osm_id":10272362937,"category":"hospitals","name":"911 Covid Testing","operator":null,"ref":null,"tags":{"amenity":"clinic","healthcare":"clinic","name":"911 Covid Testing"}},"geometry":{"type":"Point","coordinates":[-118.4123891,34.0654195]}},{"type":"Feature","properties":{"id":"osm-node-10276438586","osm_type":"node","osm_id":10276438586,"category":"hospitals","name":"Saban Community Clinic","operator":"Programs include free showers, essential kits, and case management to connect people with necessary social services for housing, food,","ref":null,"tags":{"addr:housenumber":"6043","addr:postcode":"90028","addr:street":"Hollywood Boulevard","amenity":"clinic","check_date":"2024-10-07","contact:facebook":"https://www.facebook.com/Saban-Community-Clinic/198837835060/","contact:instagram":"https://www.instagram.com/sabanclinic","contact:twitter":"https://twitter.com/sabanclinic","description":"Hollywood Health Center offers medical, behavioral health services for adults and adolescents, services for homelessness. Programs include free showers, essential kits, case management to connect with social services for housing, food, recovery, and jobs","name":"Saban Community Clinic","opening_hours":"Mo 07:30-18:30; Tu-Fr 07:30-16:30; Sa-Su off","operator":"Programs include free showers, essential kits, and case management to connect people with necessary social services for housing, food,","phone":"+1 323-653-1990","website":"https://www.sabancommunityclinic.org/locations/hollywood-health-center"}},"geometry":{"type":"Point","coordinates":[-118.3215805,34.1018391]}},{"type":"Feature","properties":{"id":"osm-node-10299277955","osm_type":"node","osm_id":10299277955,"category":"hospitals","name":"The Angeles Clinic","operator":null,"ref":null,"tags":{"amenity":"clinic","healthcare":"clinic","name":"The Angeles Clinic","wikidata":"Q43896792"}},"geometry":{"type":"Point","coordinates":[-118.46265,34.0476986]}},{"type":"Feature","properties":{"id":"osm-node-10299278001","osm_type":"node","osm_id":10299278001,"category":"hospitals","name":"Carbon Health","operator":"Carbon Health","ref":null,"tags":{"amenity":"clinic","brand":"Carbon Health","brand:wikidata":"Q110076263","healthcare":"clinic","operator":"Carbon Health","operator:type":"private","operator:wikidata":"Q110076263"}},"geometry":{"type":"Point","coordinates":[-118.4728203,34.0395292]}},{"type":"Feature","properties":{"id":"osm-node-10597504460","osm_type":"node","osm_id":10597504460,"category":"hospitals","name":"Olive House Crisis Residential","operator":"Telecare corporation","ref":null,"tags":{"addr:city":"Sylmar","addr:housenumber":"14149","addr:postcode":"91342","addr:state":"CA","addr:street":"Bucher Avenue","addr:unit":"D","amenity":"hospital","emergency":"no","healthcare":"hospital","healthcare:speciality":"mental_health","name":"Olive House Crisis Residential","operator":"Telecare corporation","operator:type":"community"}},"geometry":{"type":"Point","coordinates":[-118.4444286,34.3274884]}},{"type":"Feature","properties":{"id":"osm-node-10597504461","osm_type":"node","osm_id":10597504461,"category":"hospitals","name":"STARS Crisis Residential","operator":"STARS Behavioral","ref":null,"tags":{"addr:city":"Sylmar","addr:housenumber":"14129","addr:postcode":"91342","addr:state":"CA","addr:street":"Bucher Avenue","addr:unit":"B","amenity":"hospital","healthcare":"hospital","healthcare:speciality":"mental_health","name":"STARS Crisis Residential","operator":"STARS Behavioral","operator:type":"business"}},"geometry":{"type":"Point","coordinates":[-118.4442932,34.3279907]}},{"type":"Feature","properties":{"id":"osm-node-10671449492","osm_type":"node","osm_id":10671449492,"category":"hospitals","name":"Brentview Medical Urgent Care","operator":null,"ref":null,"tags":{"amenity":"clinic","healthcare":"clinic","healthcare:speciality":"urgent","name":"Brentview Medical Urgent Care"}},"geometry":{"type":"Point","coordinates":[-118.4628405,34.0541359]}},{"type":"Feature","properties":{"id":"osm-node-10689694288","osm_type":"node","osm_id":10689694288,"category":"hospitals","name":"Carbon Health","operator":"Carbon Health","ref":null,"tags":{"amenity":"clinic","brand":"Carbon Health","brand:wikidata":"Q110076263","healthcare":"clinic","name":"Carbon Health","operator":"Carbon Health","operator:wikidata":"Q110076263"}},"geometry":{"type":"Point","coordinates":[-118.6034128,34.1695531]}},{"type":"Feature","properties":{"id":"osm-node-10719735385","osm_type":"node","osm_id":10719735385,"category":"hospitals","name":"West Coast Endocrine","operator":"OptumCare","ref":null,"tags":{"addr:unit":"416","amenity":"clinic","healthcare":"clinic","name":"West Coast Endocrine","opening_hours":"Mo-Th 08:00-17:00; Fr 08:00-13:00","operator":"OptumCare","phone":"+1-562-988-0040","website":"https://www.optumcare.com/redirects/backtocare/california/ocmg/locations/locations/north-orange/west-coast-endocrine.html"}},"geometry":{"type":"Point","coordinates":[-118.1238773,33.7882339]}},{"type":"Feature","properties":{"id":"osm-node-10728635030","osm_type":"node","osm_id":10728635030,"category":"hospitals","name":"South Bay Pain and Wellness","operator":null,"ref":null,"tags":{"addr:housenumber":"2583","addr:street":"Pacific Coast Highway","amenity":"clinic","healthcare":"clinic","name":"South Bay Pain and Wellness","opening_hours":"Mo-Fr 09:00-19:00; Sa 09:00-14:00"}},"geometry":{"type":"Point","coordinates":[-118.3296748,33.7912495]}},{"type":"Feature","properties":{"id":"osm-node-10728637982","osm_type":"node","osm_id":10728637982,"category":"hospitals","name":"Exer Urgent Care","operator":null,"ref":null,"tags":{"amenity":"clinic","healthcare":"clinic","name":"Exer Urgent Care","opening_hours":"Mo-Su 09:00-21:00"}},"geometry":{"type":"Point","coordinates":[-118.3303399,33.7916394]}},{"type":"Feature","properties":{"id":"osm-node-10728668916","osm_type":"node","osm_id":10728668916,"category":"hospitals","name":"Skin Works Medical Spa","operator":null,"ref":null,"tags":{"amenity":"clinic","healthcare":"clinic","name":"Skin Works Medical Spa"}},"geometry":{"type":"Point","coordinates":[-118.3295519,33.7906688]}},{"type":"Feature","properties":{"id":"osm-node-10728838638","osm_type":"node","osm_id":10728838638,"category":"hospitals","name":"Rolling Hills Medical","operator":null,"ref":null,"tags":{"addr:housenumber":"2585","addr:street":"Pacific Coast Highway","amenity":"clinic","healthcare":"clinic","name":"Rolling Hills Medical","opening_hours":"Mo-Fr 09:00-17:00; Sa-Su off"}},"geometry":{"type":"Point","coordinates":[-118.3297518,33.7912857]}},{"type":"Feature","properties":{"id":"osm-node-10728838642","osm_type":"node","osm_id":10728838642,"category":"hospitals","name":"Bay City Surgery Center","operator":null,"ref":null,"tags":{"amenity":"clinic","healthcare":"clinic","name":"Bay City Surgery Center"}},"geometry":{"type":"Point","coordinates":[-118.329675,33.7908961]}},{"type":"Feature","properties":{"id":"osm-node-10733752005","osm_type":"node","osm_id":10733752005,"category":"hospitals","name":"Zen Wellness Chiropractic","operator":null,"ref":null,"tags":{"addr:housenumber":"2346","addr:postcode":"90027","addr:street":"Hyperion Avenue","amenity":"clinic","contact:instagram":"zenwellnessla","healthcare":"clinic","name":"Zen Wellness Chiropractic","website":"https://zenwellnessla.com/"}},"geometry":{"type":"Point","coordinates":[-118.272847,34.1024918]}},{"type":"Feature","properties":{"id":"osm-node-10733789106","osm_type":"node","osm_id":10733789106,"category":"hospitals","name":"Hyperion Chiropractic","operator":null,"ref":null,"tags":{"addr:city":"Los Angeles","addr:housenumber":"2114","addr:postcode":"90027","addr:state":"CA","addr:street":"Hyperion Avenue","amenity":"clinic","healthcare":"clinic","name":"Hyperion Chiropractic","phone":"+1-323-662-4401","website":"https://www.hyperionchiropractic.com/"}},"geometry":{"type":"Point","coordinates":[-118.273635,34.099045]}},{"type":"Feature","properties":{"id":"osm-node-10742652237","osm_type":"node","osm_id":10742652237,"category":"hospitals","name":"Brentwood Urgent Care","operator":null,"ref":null,"tags":{"amenity":"clinic","healthcare":"clinic","healthcare:speciality":"urgent","name":"Brentwood Urgent Care"}},"geometry":{"type":"Point","coordinates":[-118.4778988,34.0361994]}},{"type":"Feature","properties":{"id":"osm-node-10776315005","osm_type":"node","osm_id":10776315005,"category":"hospitals","name":"Davita Kidney Care","operator":"DaVita Dialysis","ref":null,"tags":{"addr:city":"Glendale","addr:housenumber":"6834","addr:postcode":"91201","addr:street":"San Fernando Road","amenity":"clinic","healthcare":"dialysis","healthcare:speciality":"nephrology","name":"Davita Kidney Care","operator":"DaVita Dialysis","operator:wikidata":"Q5207184","phone":"+1-800-424-6589","website":"https://www.davita.com/locations/CA/Glendale/6850SanFernandoRd--11354"}},"geometry":{"type":"Point","coordinates":[-118.296979,34.1726815]}},{"type":"Feature","properties":{"id":"osm-node-10776993106","osm_type":"node","osm_id":10776993106,"category":"hospitals","name":"Country Villa healthcare center","operator":null,"ref":null,"tags":{"addr:housenumber":"3002","addr:postcode":"90039","addr:street":"Rowena Avenue","amenity":"clinic","healthcare":"clinic","name":"Country Villa healthcare center","name:en":"Country Villa Healthcare Center"}},"geometry":{"type":"Point","coordinates":[-118.269932,34.1083217]}},{"type":"Feature","properties":{"id":"osm-node-10857163392","osm_type":"node","osm_id":10857163392,"category":"hospitals","name":"Concentra Urgent Care","operator":null,"ref":null,"tags":{"amenity":"clinic","healthcare":"clinic","name":"Concentra Urgent Care"}},"geometry":{"type":"Point","coordinates":[-118.0319274,33.8594376]}},{"type":"Feature","properties":{"id":"osm-node-10866365486","osm_type":"node","osm_id":10866365486,"category":"hospitals","name":"Star View Adolescent - PHF","operator":null,"ref":null,"tags":{"addr:city":"Torrance","addr:housenumber":"4025","addr:postcode":"90505","addr:street":"West 226 Street","amenity":"hospital","beds":"16","healthcare":"hospital","healthcare:speciality":"psychiatry","name":"Star View Adolescent - PHF","website":"https://www.starsinc.com/star-view-community-services/star-view-adolescent-center"}},"geometry":{"type":"Point","coordinates":[-118.3561104,33.8242398]}},{"type":"Feature","properties":{"id":"osm-node-10866397638","osm_type":"node","osm_id":10866397638,"category":"hospitals","name":"Van Nuys Behavioral Health Hospital","operator":null,"ref":null,"tags":{"addr:city":"Van Nuys","addr:housenumber":"14433","addr:postcode":"91401-4213","addr:street":"Emelita Street","amenity":"hospital","beds":"59","healthcare":"hospital","healthcare:speciality":"psychiatry","name":"Van Nuys Behavioral Health Hospital","phone":"+1 818 787 1511","website":"https://www.sch-vannuys.com"}},"geometry":{"type":"Point","coordinates":[-118.4474908,34.1769007]}},{"type":"Feature","properties":{"id":"osm-node-10866444268","osm_type":"node","osm_id":10866444268,"category":"hospitals","name":"Bellflower Behavioral Health Hospital","operator":null,"ref":null,"tags":{"amenity":"hospital","beds":"32","healthcare":"hospital","healthcare:speciality":"psychiatry","name":"Bellflower Behavioral Health Hospital","phone":"+1 562 925 8355","website":"https://www.lach-bellflower.com"}},"geometry":{"type":"Point","coordinates":[-118.1297319,33.8743136]}},{"type":"Feature","properties":{"id":"osm-node-10866445651","osm_type":"node","osm_id":10866445651,"category":"hospitals","name":"Kindred Hospital - Los Angeles","operator":null,"ref":null,"tags":{"addr:city":"Los Angeles","addr:housenumber":"5525","addr:postcode":"90056-1047","addr:state":"CA","addr:street":"West Slauson Avenue","amenity":"hospital","beds":"81","healthcare":"hospital","name":"Kindred Hospital - Los Angeles","phone":"+1 310 981 0601","website":"https://www.kindredhospitals.com/locations/ltac/kindred-hospital-los-angeles"}},"geometry":{"type":"Point","coordinates":[-118.3784511,33.9901306]}},{"type":"Feature","properties":{"id":"osm-node-10866447068","osm_type":"node","osm_id":10866447068,"category":"hospitals","name":"Kaiser Foundation Hospital Mental Health Center","operator":null,"ref":null,"tags":{"addr:city":"Los Angeles","addr:housenumber":"765","addr:postcode":"90012-1181","addr:street":"West College Street","amenity":"hospital","beds":"68","healthcare":"hospital","healthcare:speciality":"psychiatry","name":"Kaiser Foundation Hospital Mental Health Center","phone":"+1 213 580 7200","website":"https://healthy.kaiserpermanente.org/southern-california/facilities/mental-health-center-100121"}},"geometry":{"type":"Point","coordinates":[-118.2434019,34.0668973]}},{"type":"Feature","properties":{"id":"osm-node-10866448571","osm_type":"node","osm_id":10866448571,"category":"hospitals","name":"L.A. Downtown Medical Center - Ingleside Campus","operator":null,"ref":null,"tags":{"addr:city":"Rosemead","addr:housenumber":"7500","addr:postcode":"91770-2216","addr:street":"Hellman Avenue","amenity":"hospital","beds":"118","healthcare":"hospital","healthcare:speciality":"psychiatry","name":"L.A. Downtown Medical Center - Ingleside Campus","phone":"+1 626 288 1160","website":"https://ladowntownmc.com"}},"geometry":{"type":"Point","coordinates":[-118.1056885,34.0695661]}},{"type":"Feature","properties":{"id":"osm-node-10866448572","osm_type":"node","osm_id":10866448572,"category":"hospitals","name":"Tarzana Treatment Center","operator":null,"ref":null,"tags":{"addr:city":"Tarzana","addr:housenumber":"18646","addr:postcode":"91356-1411","addr:street":"Oxnard Street","amenity":"hospital","beds":"60","healthcare":"hospital","healthcare:speciality":"psychiatry","name":"Tarzana Treatment Center","phone":"+1 818 654 3815","website":"https://www.tarzanatc.org/location-detail/tarzana/18646-oxnard-street"}},"geometry":{"type":"Point","coordinates":[-118.5398562,34.1794458]}},{"type":"Feature","properties":{"id":"osm-node-10866464472","osm_type":"node","osm_id":10866464472,"category":"hospitals","name":"BHC Alhambra Hospital","operator":null,"ref":null,"tags":{"addr:city":"Rosemead","addr:housenumber":"4619","addr:postcode":"91770-1478","addr:street":"Rosemead Boulevard","amenity":"hospital","beds":"97","healthcare":"hospital","healthcare:speciality":"psychiatry","name":"BHC Alhambra Hospital","phone":"+1 626 286 1191","website":"https://www.bhcalhambra.com"}},"geometry":{"type":"Point","coordinates":[-118.0740196,34.0884364]}},{"type":"Feature","properties":{"id":"osm-node-10866465076","osm_type":"node","osm_id":10866465076,"category":"hospitals","name":"Motion Picture And Television Hospital","operator":null,"ref":null,"tags":{"addr:city":"Woodland Hills","addr:housenumber":"23388","addr:postcode":"91364-2733","addr:street":"Mulholland Drive","amenity":"hospital","beds":"12","healthcare":"hospital","healthcare:speciality":"psychiatry","name":"Motion Picture And Television Hospital","phone":"+1 818 876 1043","website":"https://mptf.com"}},"geometry":{"type":"Point","coordinates":[-118.6366359,34.1579783]}},{"type":"Feature","properties":{"id":"osm-node-10866467674","osm_type":"node","osm_id":10866467674,"category":"hospitals","name":"College Medical Center Hawthorne Campus","operator":null,"ref":null,"tags":{"addr:city":"Hawthorne","addr:housenumber":"13300","addr:postcode":"90250-5805","addr:state":"CA","addr:street":"Hawthorne Boulevard","amenity":"hospital","beds":"64","healthcare":"hospital","healthcare:speciality":"psychiatry","name":"College Medical Center Hawthorne Campus","phone":"+1 424 365 3000","website":"https://www.collegemedicalcenter.com"}},"geometry":{"type":"Point","coordinates":[-118.3520439,33.9117288]}},{"type":"Feature","properties":{"id":"osm-node-10895804213","osm_type":"node","osm_id":10895804213,"category":"hospitals","name":"LaserMD Pain Relief","operator":"Harold Kraft, M.D.","ref":null,"tags":{"addr:city":"Glendale","addr:housenumber":"411","addr:postcode":"91203","addr:state":"CA","addr:street":"North Central Avenue","addr:unit":"205","amenity":"clinic","description":"No Needle Epidurals are more effective than big needle epidurals, and faster than PT or Chiro. Get profound pain relief that's fast, pain-free, drug-free, and safe. Covered by Medicare, commercial insurance, and accident lawyers.","email":"help@lasermdpainrelief.com","healthcare":"clinic","healthcare:speciality":"pain_management;pain_control","logo":"https://www.lasermdpainrelief.com/images/logo-color.png","name":"LaserMD Pain Relief","note:payment":"We accept Medicare, PPO, Accident Lien, Accident Med-Pay, Cash.","opening_hours":"Tu, Th 08:00-17:00","operator":"Harold Kraft, M.D.","operator:type":"private","payment:cash":"yes","phone":"+1-213-550-3549","start_date":"2015","website":"https://www.lasermdpainrelief.com"}},"geometry":{"type":"Point","coordinates":[-118.258255,34.1525274]}},{"type":"Feature","properties":{"id":"osm-node-10968438453","osm_type":"node","osm_id":10968438453,"category":"hospitals","name":"Del Amo","operator":null,"ref":null,"tags":{"amenity":"clinic","healthcare":"clinic","healthcare:speciality":"behavior","name":"Del Amo"}},"geometry":{"type":"Point","coordinates":[-118.3436391,33.8102276]}},{"type":"Feature","properties":{"id":"osm-node-11014639805","osm_type":"node","osm_id":11014639805,"category":"hospitals","name":"Cedars Sinai Transplant Center","operator":null,"ref":null,"tags":{"addr:housenumber":"8900","addr:street":"Beverly Boulevard","amenity":"hospital","name":"Cedars Sinai Transplant Center"}},"geometry":{"type":"Point","coordinates":[-118.3863064,34.0769655]}},{"type":"Feature","properties":{"id":"osm-node-11022602425","osm_type":"node","osm_id":11022602425,"category":"hospitals","name":"Veritas Healthcare","operator":"Kristopher Sims","ref":null,"tags":{"addr:city":"Manhattan Beach","addr:housenumber":"1500","addr:postcode":"90266","addr:state":"CA","addr:street":"Rosecrans Avenue","addr:unit":"500","amenity":"clinic","description":"We have emerged as a leading provider of mobile health testing and screening with on-site health testing services in Los Angeles.","healthcare":"clinic","healthcare:speciality":"covid-19-testing","name":"Veritas Healthcare","opening_hours":"Mo-Su 07:00-17:00","operator":"Kristopher Sims","payment:cash":"yes","payment:credit_cards":"yes","payment:debit_cards":"yes","phone":"+1-310-736-1580","website":"https://www.veritas-healthcare.com"}},"geometry":{"type":"Point","coordinates":[-118.3923474,33.9015609]}},{"type":"Feature","properties":{"id":"osm-node-11069044352","osm_type":"node","osm_id":11069044352,"category":"hospitals","name":"Nenergy Boost","operator":null,"ref":null,"tags":{"addr:city":"Malibu","addr:housenumber":"23410","addr:postcode":"90265","addr:state":"CA","addr:street":"Civic Center Way","addr:unit":"2B","amenity":"clinic","contact:email":"info@nenergyboost.com","contact:facebook":"https://www.facebook.com/newenergynewyou/","contact:instagram":"https://www.instagram.com/nenergyboost/","contact:website":"https://nenergyboost.com/","healthcare":"clinic","language:en":"yes","name":"Nenergy Boost","opening_hours":"Tu-Sa 11:00-18:00","payment:cash":"yes","payment:credit_cards":"yes","start_date":"2021"}},"geometry":{"type":"Point","coordinates":[-118.6874414,34.0364681]}},{"type":"Feature","properties":{"id":"osm-node-11070561907","osm_type":"node","osm_id":11070561907,"category":"hospitals","name":"Nenergy Boost","operator":"Jody Berman","ref":null,"tags":{"addr:city":"Brentwood","addr:housenumber":"133","addr:postcode":"90049","addr:state":"CA","addr:street":"South Barrington Place","amenity":"clinic","contact:facebook":"https://www.facebook.com/newenergynewyou/","description":"Nenergy is an innovative vitamin boost and IV therapy clinic in the Brentwood neighborhood of West Los Angeles that takes an advanced approach to wellness.","email":"info@nenergyboost.com","healthcare":"clinic","healthcare:speciality":"medical_spa","name":"Nenergy Boost","opening_hours":"Mo - Fr 10:00-17:00; Sa - Su Closed","operator":"Jody Berman","phone":"+1 424-325-3939","website":"https://nenergyboost.com"}},"geometry":{"type":"Point","coordinates":[-118.4693571,34.0663797]}},{"type":"Feature","properties":{"id":"osm-node-11086704860","osm_type":"node","osm_id":11086704860,"category":"hospitals","name":"UCLA Health","operator":"UCLA Health","ref":null,"tags":{"amenity":"clinic","healthcare":"clinic","name":"UCLA Health","operator":"UCLA Health","operator:type":"university","operator:wikidata":"Q18394900"}},"geometry":{"type":"Point","coordinates":[-118.4766463,34.0255794]}},{"type":"Feature","properties":{"id":"osm-node-11248989368","osm_type":"node","osm_id":11248989368,"category":"hospitals","name":"Hughes Plastic Surgery","operator":null,"ref":null,"tags":{"amenity":"clinic","healthcare":"clinic","healthcare:speciality":"plastic_surgery","name":"Hughes Plastic Surgery"}},"geometry":{"type":"Point","coordinates":[-118.4355792,33.9963535]}},{"type":"Feature","properties":{"id":"osm-node-11370602524","osm_type":"node","osm_id":11370602524,"category":"hospitals","name":"Da Vita Nephron","operator":"DaVita Dialysis","ref":null,"tags":{"addr:city":"Lakewood","addr:housenumber":"5810","addr:postcode":"90712","addr:state":"CA","addr:street":"Downey Avenue","amenity":"clinic","healthcare":"dialysis","healthcare:speciality":"nephrology","name":"Da Vita Nephron","not:operator:wikidata":"Q5207184","operator":"DaVita Dialysis"}},"geometry":{"type":"Point","coordinates":[-118.1500216,33.8617789]}},