{"type":"FeatureCollection","generated_at":"2026-04-23T05:37:24.636Z","region":"miami","bbox":[-80.6,25.55,-80.05,26.05],"category":"police","feature_count":180,"features":[{"type":"Feature","properties":{"id":"osm-node-367818963","osm_type":"node","osm_id":367818963,"category":"police","name":"Miami Beach - Beach Patrol Ocean Rescue","operator":null,"ref":null,"tags":{"addr:state":"FL","amenity":"fire_station","ele":"1","gnis:feature_id":"2332980","name":"Miami Beach - Beach Patrol Ocean Rescue","source":"USGS Geonames"}},"geometry":{"type":"Point","coordinates":[-80.1301581,25.7802585]}},{"type":"Feature","properties":{"id":"osm-node-367819549","osm_type":"node","osm_id":367819549,"category":"police","name":"North Miami East Fire Station","operator":null,"ref":null,"tags":{"addr:state":"FL","amenity":"fire_station","ele":"3","gnis:feature_id":"2077609","name":"North Miami East Fire Station","source":"USGS Geonames"}},"geometry":{"type":"Point","coordinates":[-80.1666667,25.8955556]}},{"type":"Feature","properties":{"id":"osm-node-367819553","osm_type":"node","osm_id":367819553,"category":"police","name":"Perrine Fire Station","operator":null,"ref":null,"tags":{"addr:state":"FL","amenity":"fire_station","ele":"4","gnis:feature_id":"2077435","name":"Perrine Fire Station","source":"USGS Geonames"}},"geometry":{"type":"Point","coordinates":[-80.3497222,25.6033333]}},{"type":"Feature","properties":{"id":"osm-node-367819554","osm_type":"node","osm_id":367819554,"category":"police","name":"Saga Bay Fire Station","operator":null,"ref":null,"tags":{"addr:state":"FL","amenity":"fire_station","ele":"1","gnis:feature_id":"2077263","name":"Saga Bay Fire Station","source":"USGS Geonames"}},"geometry":{"type":"Point","coordinates":[-80.3488889,25.8108333]}},{"type":"Feature","properties":{"id":"osm-node-367819564","osm_type":"node","osm_id":367819564,"category":"police","name":"Honey Hill Fire Station","operator":null,"ref":null,"tags":{"addr:state":"FL","amenity":"fire_station","ele":"1","gnis:feature_id":"2078092","name":"Honey Hill Fire Station","source":"USGS Geonames"}},"geometry":{"type":"Point","coordinates":[-80.28,25.9536111]}},{"type":"Feature","properties":{"id":"osm-node-367819572","osm_type":"node","osm_id":367819572,"category":"police","name":"Miramar Fire / Rescue Station 19","operator":null,"ref":null,"tags":{"addr:state":"FL","alt_name":"Miramar Fire Station","amenity":"fire_station","ele":"2;1","gnis:feature_id":"2077655;2131369","name":"Miramar Fire / Rescue Station 19","source":"USGS Geonames"}},"geometry":{"type":"Point","coordinates":[-80.2207259,25.981607]}},{"type":"Feature","properties":{"id":"osm-node-367819573","osm_type":"node","osm_id":367819573,"category":"police","name":"Miramar Fire Station","operator":null,"ref":null,"tags":{"addr:state":"FL","amenity":"fire_station","ele":"1","gnis:feature_id":"2077654","name":"Miramar Fire Station","source":"USGS Geonames"}},"geometry":{"type":"Point","coordinates":[-80.3383333,25.9652778]}},{"type":"Feature","properties":{"id":"osm-node-367819675","osm_type":"node","osm_id":367819675,"category":"police","name":"Bunche Park Fire Station","operator":null,"ref":null,"tags":{"addr:state":"FL","amenity":"fire_station","ele":"1","gnis:feature_id":"2078780","name":"Bunche Park Fire Station","source":"USGS Geonames"}},"geometry":{"type":"Point","coordinates":[-80.2447222,25.9136111]}},{"type":"Feature","properties":{"id":"osm-node-367819685","osm_type":"node","osm_id":367819685,"category":"police","name":"Airport North Side Fire Station","operator":null,"ref":null,"tags":{"addr:state":"FL","amenity":"fire_station","check_date":"2024-08-04","ele":"1","gnis:feature_id":"2078911","name":"Airport North Side Fire Station","source":"USGS Geonames"}},"geometry":{"type":"Point","coordinates":[-80.2888889,25.8075]}},{"type":"Feature","properties":{"id":"osm-node-367819705","osm_type":"node","osm_id":367819705,"category":"police","name":"Hollywood Fire / Rescue Station 31","operator":null,"ref":null,"tags":{"addr:state":"FL","amenity":"fire_station","ele":"3","gnis:feature_id":"2078200;2131154","name":"Hollywood Fire / Rescue Station 31","source":"USGS Geonames"}},"geometry":{"type":"Point","coordinates":[-80.1774906,26.0110291]}},{"type":"Feature","properties":{"id":"osm-node-367819706","osm_type":"node","osm_id":367819706,"category":"police","name":"Hollywood Fire Station","operator":null,"ref":null,"tags":{"addr:state":"FL","amenity":"fire_station","ele":"3","gnis:feature_id":"2078201","name":"Hollywood Fire Station","source":"USGS Geonames"}},"geometry":{"type":"Point","coordinates":[-80.1477778,26.0127778]}},{"type":"Feature","properties":{"id":"osm-node-367819710","osm_type":"node","osm_id":367819710,"category":"police","name":"Hallandale Fire Station","operator":null,"ref":null,"tags":{"addr:city":"Hallandale Beach","addr:housenumber":"2801","addr:postcode":"33019","addr:state":"FL","addr:street":"East Hallandale Beach Boulevard","amenity":"fire_station","ele":"1","gnis:feature_id":"2078276","name":"Hallandale Fire Station","source":"USGS Geonames","website":"https://hallandalebeachfl.gov/Directory.aspx?did=2"}},"geometry":{"type":"Point","coordinates":[-80.1186111,25.9863759]}},{"type":"Feature","properties":{"id":"osm-node-367819720","osm_type":"node","osm_id":367819720,"category":"police","name":"Fire Station Number 79","operator":null,"ref":null,"tags":{"addr:state":"FL","amenity":"fire_station","ele":"3","gnis:feature_id":"2078365","name":"Fire Station Number 79","source":"USGS Geonames"}},"geometry":{"type":"Point","coordinates":[-80.4358302,26.0146207]}},{"type":"Feature","properties":{"id":"osm-node-367819781","osm_type":"node","osm_id":367819781,"category":"police","name":"Hollywood Fire / Rescue Station 45","operator":null,"ref":null,"tags":{"addr:state":"FL","amenity":"fire_station","ele":"1","gnis:feature_id":"2131139","name":"Hollywood Fire / Rescue Station 45","source":"USGS Geonames"}},"geometry":{"type":"Point","coordinates":[-80.2166099,26.0259556]}},{"type":"Feature","properties":{"id":"osm-node-367819802","osm_type":"node","osm_id":367819802,"category":"police","name":"Hallandale Fire / Rescue Station 90","operator":null,"ref":null,"tags":{"addr:state":"FL","amenity":"fire_station","ele":"0","gnis:feature_id":"2131165","name":"Hallandale Fire / Rescue Station 90","source":"USGS Geonames"}},"geometry":{"type":"Point","coordinates":[-80.1264408,25.9877058]}},{"type":"Feature","properties":{"id":"osm-node-367819811","osm_type":"node","osm_id":367819811,"category":"police","name":"Miami Dade Fire / Rescue","operator":null,"ref":null,"tags":{"addr:state":"FL","amenity":"fire_station","ele":"1","gnis:feature_id":"2131158","name":"Miami Dade Fire / Rescue","source":"USGS Geonames"}},"geometry":{"type":"Point","coordinates":[-80.3485901,25.8102237]}},{"type":"Feature","properties":{"id":"osm-node-367819812","osm_type":"node","osm_id":367819812,"category":"police","name":"South Florida Fire Fighters","operator":null,"ref":null,"tags":{"addr:state":"FL","amenity":"fire_station","ele":"1","gnis:feature_id":"2131159","name":"South Florida Fire Fighters","source":"USGS Geonames"}},"geometry":{"type":"Point","coordinates":[-80.3171737,25.9048435]}},{"type":"Feature","properties":{"id":"osm-node-367819820","osm_type":"node","osm_id":367819820,"category":"police","name":"Coral Gables Fire Department Station 1","operator":null,"ref":null,"tags":{"addr:state":"FL","amenity":"fire_station","ele":"4","gnis:feature_id":"2131155","name":"Coral Gables Fire Department Station 1","source":"USGS Geonames"}},"geometry":{"type":"Point","coordinates":[-80.2603962,25.7458691]}},{"type":"Feature","properties":{"id":"osm-node-367819826","osm_type":"node","osm_id":367819826,"category":"police","name":"Hialeah Fire Department Station 1","operator":null,"ref":null,"tags":{"addr:state":"FL","amenity":"fire_station","ele":"1","gnis:feature_id":"2131150","name":"Hialeah Fire Department Station 1","source":"USGS Geonames"}},"geometry":{"type":"Point","coordinates":[-80.2799625,25.8267032]}},{"type":"Feature","properties":{"id":"osm-node-367819863","osm_type":"node","osm_id":367819863,"category":"police","name":"Saga Bay Fire Department Station 55","operator":null,"ref":null,"tags":{"addr:state":"FL","amenity":"fire_station","ele":"1","gnis:feature_id":"2131125","name":"Saga Bay Fire Department Station 55","source":"USGS Geonames"}},"geometry":{"type":"Point","coordinates":[-80.3309362,25.5663755]}},{"type":"Feature","properties":{"id":"osm-node-367819868","osm_type":"node","osm_id":367819868,"category":"police","name":"Carver Ranches Fire Department Station 17","operator":null,"ref":null,"tags":{"addr:state":"FL","amenity":"fire_station","ele":"3","gnis:feature_id":"2131128","name":"Carver Ranches Fire Department Station 17","source":"USGS Geonames"}},"geometry":{"type":"Point","coordinates":[-80.1834565,25.9869909]}},{"type":"Feature","properties":{"id":"osm-node-367819873","osm_type":"node","osm_id":367819873,"category":"police","name":"South Miami Heights Fire Department Station 52","operator":null,"ref":null,"tags":{"addr:state":"FL","amenity":"fire_station","ele":"3","gnis:feature_id":"2131123","name":"South Miami Heights Fire Department Station 52","source":"USGS Geonames"}},"geometry":{"type":"Point","coordinates":[-80.3875335,25.586206]}},{"type":"Feature","properties":{"id":"osm-node-367819874","osm_type":"node","osm_id":367819874,"category":"police","name":"West Sunset Fire Department Station 56","operator":null,"ref":null,"tags":{"addr:state":"FL","amenity":"fire_station","ele":"2","gnis:feature_id":"2131124","name":"West Sunset Fire Department Station 56","source":"USGS Geonames"}},"geometry":{"type":"Point","coordinates":[-80.4561348,25.6982041]}},{"type":"Feature","properties":{"id":"osm-node-367819884","osm_type":"node","osm_id":367819884,"category":"police","name":"Lake Forest Fire Department Station 48","operator":null,"ref":null,"tags":{"addr:state":"FL","amenity":"fire_station","ele":"2","gnis:feature_id":"2131215","name":"Lake Forest Fire Department Station 48","source":"USGS Geonames"}},"geometry":{"type":"Point","coordinates":[-80.1838566,25.9755114]}},{"type":"Feature","properties":{"id":"osm-node-367819887","osm_type":"node","osm_id":367819887,"category":"police","name":"Perrine Fire Department Station 50","operator":null,"ref":null,"tags":{"addr:state":"FL","amenity":"fire_station","ele":"4","gnis:feature_id":"2131214","name":"Perrine Fire Department Station 50","source":"USGS Geonames"}},"geometry":{"type":"Point","coordinates":[-80.3495157,25.6032926]}},{"type":"Feature","properties":{"id":"osm-node-367819901","osm_type":"node","osm_id":367819901,"category":"police","name":"Model Cities Fire Department Station 2","operator":null,"ref":null,"tags":{"addr:state":"FL","amenity":"fire_station","ele":"3","gnis:feature_id":"2131203","name":"Model Cities Fire Department Station 2","source":"USGS Geonames"}},"geometry":{"type":"Point","coordinates":[-80.2416796,25.8333379]}},{"type":"Feature","properties":{"id":"osm-node-367819986","osm_type":"node","osm_id":367819986,"category":"police","name":"Miami Fire / Rescue Station 4","operator":null,"ref":null,"tags":{"addr:state":"FL","amenity":"fire_station","ele":"4","gnis:feature_id":"2131181","name":"Miami Fire / Rescue Station 4","source":"USGS Geonames"}},"geometry":{"type":"Point","coordinates":[-80.1969782,25.763063]}},{"type":"Feature","properties":{"id":"osm-node-367819987","osm_type":"node","osm_id":367819987,"category":"police","name":"Pembroke Park Fire Department","operator":null,"ref":null,"tags":{"addr:state":"FL","amenity":"fire_station","ele":"2","gnis:feature_id":"2131184","name":"Pembroke Park Fire Department","source":"USGS Geonames"}},"geometry":{"type":"Point","coordinates":[-80.1950887,25.9829892]}},{"type":"Feature","properties":{"id":"osm-node-367819990","osm_type":"node","osm_id":367819990,"category":"police","name":"Miami Fire / Rescue Department Support Service Division","operator":null,"ref":null,"tags":{"addr:state":"FL","amenity":"fire_station","ele":"3","gnis:feature_id":"2131167","name":"Miami Fire / Rescue Department Support Service Division","source":"USGS Geonames"}},"geometry":{"type":"Point","coordinates":[-80.2142474,25.780652]}},{"type":"Feature","properties":{"id":"osm-node-367820007","osm_type":"node","osm_id":367820007,"category":"police","name":"Miami Fire / Rescue Station 6","operator":null,"ref":null,"tags":{"addr:state":"FL","amenity":"fire_station","ele":"8","gnis:feature_id":"2131197","name":"Miami Fire / Rescue Station 6","source":"USGS Geonames"}},"geometry":{"type":"Point","coordinates":[-80.2078653,25.8103083]}},{"type":"Feature","properties":{"id":"osm-node-367820008","osm_type":"node","osm_id":367820008,"category":"police","name":"Miami Fire / Rescue Station 7","operator":null,"ref":null,"tags":{"addr:state":"FL","amenity":"fire_station","ele":"3","gnis:feature_id":"2131198","name":"Miami Fire / Rescue Station 7","source":"USGS Geonames"}},"geometry":{"type":"Point","coordinates":[-80.235005,25.7688408]}},{"type":"Feature","properties":{"id":"osm-node-367820011","osm_type":"node","osm_id":367820011,"category":"police","name":"Miami Fire / Rescue Station 8","operator":null,"ref":null,"tags":{"addr:state":"FL","amenity":"fire_station","ele":"4","gnis:feature_id":"2131199","name":"Miami Fire / Rescue Station 8","source":"USGS Geonames"}},"geometry":{"type":"Point","coordinates":[-80.2412232,25.7301748]}},{"type":"Feature","properties":{"id":"osm-node-367820012","osm_type":"node","osm_id":367820012,"category":"police","name":"Miami Fire / Rescue Station 9","operator":null,"ref":null,"tags":{"addr:state":"FL","amenity":"fire_station","ele":"3","gnis:feature_id":"2131200","name":"Miami Fire / Rescue Station 9","source":"USGS Geonames"}},"geometry":{"type":"Point","coordinates":[-80.1946316,25.8330092]}},{"type":"Feature","properties":{"id":"osm-node-367820020","osm_type":"node","osm_id":367820020,"category":"police","name":"Coral Gables Fire Department Station 3","operator":null,"ref":null,"tags":{"addr:state":"FL","amenity":"fire_station","ele":"4","gnis:feature_id":"2131189","name":"Coral Gables Fire Department Station 3","source":"USGS Geonames"}},"geometry":{"type":"Point","coordinates":[-80.2823615,25.6632934]}},{"type":"Feature","properties":{"id":"osm-node-367820045","osm_type":"node","osm_id":367820045,"category":"police","name":"West Kendall Fire Department Station 57","operator":null,"ref":null,"tags":{"addr:state":"FL","amenity":"fire_station","ele":"3","gnis:feature_id":"2131304","name":"West Kendall Fire Department Station 57","source":"USGS Geonames"}},"geometry":{"type":"Point","coordinates":[-80.4010428,25.6888106]}},{"type":"Feature","properties":{"id":"osm-node-367820048","osm_type":"node","osm_id":367820048,"category":"police","name":"Bunche Park Fire Department Station 54","operator":null,"ref":null,"tags":{"addr:state":"FL","amenity":"fire_station","ele":"1","gnis:feature_id":"2131303","name":"Bunche Park Fire Department Station 54","source":"USGS Geonames"}},"geometry":{"type":"Point","coordinates":[-80.2446517,25.913319]}},{"type":"Feature","properties":{"id":"osm-node-367820058","osm_type":"node","osm_id":367820058,"category":"police","name":"Richmond Fire Department Station 43","operator":null,"ref":null,"tags":{"addr:state":"FL","amenity":"fire_station","ele":"2","gnis:feature_id":"2131277","name":"Richmond Fire Department Station 43","source":"USGS Geonames"}},"geometry":{"type":"Point","coordinates":[-80.4099823,25.6259156]}},{"type":"Feature","properties":{"id":"osm-node-367820060","osm_type":"node","osm_id":367820060,"category":"police","name":"Palm Springs North Fire Department Station 44","operator":null,"ref":null,"tags":{"addr:state":"FL","amenity":"fire_station","ele":"1","gnis:feature_id":"2131278","name":"Palm Springs North Fire Department Station 44","source":"USGS Geonames"}},"geometry":{"type":"Point","coordinates":[-80.3265637,25.9418822]}},{"type":"Feature","properties":{"id":"osm-node-367820061","osm_type":"node","osm_id":367820061,"category":"police","name":"Doral Fire Department Station 45","operator":null,"ref":null,"tags":{"addr:state":"FL","amenity":"fire_station","ele":"1","gnis:feature_id":"2131279","name":"Doral Fire Department Station 45","source":"USGS Geonames"}},"geometry":{"type":"Point","coordinates":[-80.3543937,25.8256847]}},{"type":"Feature","properties":{"id":"osm-node-367820063","osm_type":"node","osm_id":367820063,"category":"police","name":"West Bird Fire Department Station 37","operator":null,"ref":null,"tags":{"addr:state":"FL","amenity":"fire_station","ele":"1","gnis:feature_id":"2131272","name":"West Bird Fire Department Station 37","source":"USGS Geonames"}},"geometry":{"type":"Point","coordinates":[-80.4240749,25.7280366]}},{"type":"Feature","properties":{"id":"osm-node-367820065","osm_type":"node","osm_id":367820065,"category":"police","name":"Norland Fire Department Station 38","operator":null,"ref":null,"tags":{"addr:state":"FL","amenity":"fire_station","ele":"3","gnis:feature_id":"2131273","name":"Norland Fire Department Station 38","source":"USGS Geonames"}},"geometry":{"type":"Point","coordinates":[-80.2113655,25.9565681]}},{"type":"Feature","properties":{"id":"osm-node-367820067","osm_type":"node","osm_id":367820067,"category":"police","name":"Seaport / Port of Miami Fire Department Station 39","operator":null,"ref":null,"tags":{"addr:city":"Miami","addr:housenumber":"641","addr:postcode":"33132","addr:state":"FL","addr:street":"Europe Way","amenity":"fire_station","ele":"0","gnis:feature_id":"2131274","name":"Seaport / Port of Miami Fire Department Station 39","source":"USGS Geonames"}},"geometry":{"type":"Point","coordinates":[-80.169651,25.7748819]}},{"type":"Feature","properties":{"id":"osm-node-367820076","osm_type":"node","osm_id":367820076,"category":"police","name":"Medley Fire Department Station 46","operator":null,"ref":null,"tags":{"addr:state":"FL","amenity":"fire_station","ele":"1","gnis:feature_id":"2131280","name":"Medley Fire Department Station 46","source":"USGS Geonames"}},"geometry":{"type":"Point","coordinates":[-80.3644085,25.8701762]}},{"type":"Feature","properties":{"id":"osm-node-367820078","osm_type":"node","osm_id":367820078,"category":"police","name":"Westchester Fire Department Station 47","operator":null,"ref":null,"tags":{"addr:state":"FL","amenity":"fire_station","ele":"1","gnis:feature_id":"2131281","name":"Westchester Fire Department Station 47","source":"USGS Geonames"}},"geometry":{"type":"Point","coordinates":[-80.3469564,25.7477109]}},{"type":"Feature","properties":{"id":"osm-node-367820082","osm_type":"node","osm_id":367820082,"category":"police","name":"Pinecrest Fire Department Station 49","operator":null,"ref":null,"tags":{"addr:state":"FL","amenity":"fire_station","ele":"2","gnis:feature_id":"2131283","name":"Pinecrest Fire Department Station 49","source":"USGS Geonames"}},"geometry":{"type":"Point","coordinates":[-80.2849152,25.6690508]}},{"type":"Feature","properties":{"id":"osm-node-367820097","osm_type":"node","osm_id":367820097,"category":"police","name":"Hammocks Fire Department Station 36","operator":null,"ref":null,"tags":{"addr:state":"FL","amenity":"fire_station","ele":"1","gnis:feature_id":"2131271","name":"Hammocks Fire Department Station 36","source":"USGS Geonames"}},"geometry":{"type":"Point","coordinates":[-80.4436296,25.6730912]}},{"type":"Feature","properties":{"id":"osm-node-367820099","osm_type":"node","osm_id":367820099,"category":"police","name":"Miami Springs Fire Department Station 35","operator":null,"ref":null,"tags":{"addr:state":"FL","amenity":"fire_station","check_date":"2024-08-07","ele":"1","gnis:feature_id":"2131270","name":"Miami Springs Fire Department Station 35","source":"USGS Geonames"}},"geometry":{"type":"Point","coordinates":[-80.2846311,25.8213793]}},{"type":"Feature","properties":{"id":"osm-node-367820144","osm_type":"node","osm_id":367820144,"category":"police","name":"Miami Beach Fire / Rescue Station 3","operator":null,"ref":null,"tags":{"addr:state":"FL","amenity":"fire_station","ele":"1","gnis:feature_id":"2131357","name":"Miami Beach Fire / Rescue Station 3","source":"USGS Geonames"}},"geometry":{"type":"Point","coordinates":[-80.1213149,25.8313812]}},{"type":"Feature","properties":{"id":"osm-node-367820146","osm_type":"node","osm_id":367820146,"category":"police","name":"Miami Beach Fire / Rescue Station 1","operator":null,"ref":null,"tags":{"addr:state":"FL","amenity":"fire_station","check_date":"2024-08-02","ele":"1","gnis:feature_id":"2131356","name":"Miami Beach Fire / Rescue Station 1","source":"USGS Geonames"}},"geometry":{"type":"Point","coordinates":[-80.1370289,25.7813468]}},{"type":"Feature","properties":{"id":"osm-node-367820165","osm_type":"node","osm_id":367820165,"category":"police","name":"Pembroke Pines Fire / Rescue Station 79","operator":null,"ref":null,"tags":{"addr:state":"FL","amenity":"fire_station","ele":"2","gnis:feature_id":"2131366","name":"Pembroke Pines Fire / Rescue Station 79","source":"USGS Geonames"}},"geometry":{"type":"Point","coordinates":[-80.4134981,26.0070422]}},{"type":"Feature","properties":{"id":"osm-node-367820172","osm_type":"node","osm_id":367820172,"category":"police","name":"Miami-Dade Fire Rescue Station 24 (Kendall - Tamiami Airport)","operator":null,"ref":null,"tags":{"addr:state":"FL","amenity":"fire_station","ele":"1","gnis:feature_id":"2131339","name":"Miami-Dade Fire Rescue Station 24 (Kendall - Tamiami Airport)","source":"USGS Geonames"}},"geometry":{"type":"Point","coordinates":[-80.4209033,25.649421]}},{"type":"Feature","properties":{"id":"osm-node-367820174","osm_type":"node","osm_id":367820174,"category":"police","name":"Opa - Locka Airport Fire Department Station 25","operator":null,"ref":null,"tags":{"addr:state":"FL","amenity":"fire_station","ele":"2","gnis:feature_id":"2131340","name":"Opa - Locka Airport Fire Department Station 25","source":"USGS Geonames"}},"geometry":{"type":"Point","coordinates":[-80.2697659,25.9064888]}},{"type":"Feature","properties":{"id":"osm-node-367820175","osm_type":"node","osm_id":367820175,"category":"police","name":"Opa - Locka Fire Department Station 26","operator":null,"ref":null,"tags":{"addr:state":"FL","amenity":"fire_station","ele":"1","gnis:feature_id":"2131341","name":"Opa - Locka Fire Department Station 26","source":"USGS Geonames"}},"geometry":{"type":"Point","coordinates":[-80.250931,25.8821371]}},{"type":"Feature","properties":{"id":"osm-node-367820179","osm_type":"node","osm_id":367820179,"category":"police","name":"Hialeah Gardens Fire Department Station 28","operator":null,"ref":null,"tags":{"addr:state":"FL","amenity":"fire_station","ele":"2","gnis:feature_id":"2131343","name":"Hialeah Gardens Fire Department Station 28","source":"USGS Geonames"}},"geometry":{"type":"Point","coordinates":[-80.3385769,25.8679447]}},{"type":"Feature","properties":{"id":"osm-node-367820181","osm_type":"node","osm_id":367820181,"category":"police","name":"Sweetwater Fire Department Station 29","operator":null,"ref":null,"tags":{"addr:state":"FL","amenity":"fire_station","ele":"1","gnis:feature_id":"2131344","name":"Sweetwater Fire Department Station 29","source":"USGS Geonames"}},"geometry":{"type":"Point","coordinates":[-80.368415,25.7652022]}},{"type":"Feature","properties":{"id":"osm-node-367820183","osm_type":"node","osm_id":367820183,"category":"police","name":"Miami Shores / El Portal Fire Station 30","operator":null,"ref":null,"tags":{"addr:state":"FL","amenity":"fire_station","ele":"2","gnis:feature_id":"2131345","name":"Miami Shores / El Portal Fire Station 30","source":"USGS Geonames"}},"geometry":{"type":"Point","coordinates":[-80.1936725,25.8627984]}},{"type":"Feature","properties":{"id":"osm-node-367820185","osm_type":"node","osm_id":367820185,"category":"police","name":"North Miami Beach Fire Department Station 31","operator":null,"ref":null,"tags":{"addr:state":"FL","amenity":"fire_station","ele":"3","gnis:feature_id":"2131346","name":"North Miami Beach Fire Department Station 31","source":"USGS Geonames"}},"geometry":{"type":"Point","coordinates":[-80.1627323,25.9328364]}},{"type":"Feature","properties":{"id":"osm-node-367820186","osm_type":"node","osm_id":367820186,"category":"police","name":"Uleta Fire Department Station 32","operator":null,"ref":null,"tags":{"addr:state":"FL","amenity":"fire_station","ele":"2","gnis:feature_id":"2131347","name":"Uleta Fire Department Station 32","source":"USGS Geonames"}},"geometry":{"type":"Point","coordinates":[-80.1928551,25.9289084]}},{"type":"Feature","properties":{"id":"osm-node-367820189","osm_type":"node","osm_id":367820189,"category":"police","name":"Aventura South Fire Department Station 33","operator":null,"ref":null,"tags":{"addr:city":"Aventura","addr:housenumber":"2601","addr:postcode":"33160","addr:state":"FL","addr:street":"Point East Drive","amenity":"fire_station","ele":"1","gnis:feature_id":"2131348","name":"Aventura South Fire Department Station 33","source":"USGS Geonames"}},"geometry":{"type":"Point","coordinates":[-80.1484031,25.9401452]}},{"type":"Feature","properties":{"id":"osm-node-367820192","osm_type":"node","osm_id":367820192,"category":"police","name":"Hollywood Fire / Rescue Station 40","operator":null,"ref":null,"tags":{"addr:state":"FL","amenity":"fire_station","ele":"1","gnis:feature_id":"2131350","name":"Hollywood Fire / Rescue Station 40","source":"USGS Geonames"}},"geometry":{"type":"Point","coordinates":[-80.1160843,26.0253786]}},{"type":"Feature","properties":{"id":"osm-node-367820194","osm_type":"node","osm_id":367820194,"category":"police","name":"Miami Fire / Rescue Station 11","operator":null,"ref":null,"tags":{"addr:state":"FL","amenity":"fire_station","ele":"2","gnis:feature_id":"2131352","name":"Miami Fire / Rescue Station 11","source":"USGS Geonames"}},"geometry":{"type":"Point","coordinates":[-80.2921425,25.7704397]}},{"type":"Feature","properties":{"id":"osm-node-367820196","osm_type":"node","osm_id":367820196,"category":"police","name":"Miami Fire / Rescue Station 12","operator":null,"ref":null,"tags":{"addr:state":"FL","amenity":"fire_station","ele":"4","gnis:feature_id":"2131353","name":"Miami Fire / Rescue Station 12","source":"USGS Geonames"}},"geometry":{"type":"Point","coordinates":[-80.2206114,25.8174323]}},{"type":"Feature","properties":{"id":"osm-node-367820197","osm_type":"node","osm_id":367820197,"category":"police","name":"Aventura Fire Department Station 8","operator":"Miami-Dade County","ref":null,"tags":{"addr:city":"Aventura","addr:housenumber":"2900","addr:postcode":"33180","addr:state":"FL","addr:street":"Northeast 199th Street","amenity":"fire_station","ele":"2","gnis:feature_id":"2131324","name":"Aventura Fire Department Station 8","operator":"Miami-Dade County","source":"USGS Geonames"}},"geometry":{"type":"Point","coordinates":[-80.143271,25.9605431]}},{"type":"Feature","properties":{"id":"osm-node-367820200","osm_type":"node","osm_id":367820200,"category":"police","name":"West Little River Fire Department Station 7","operator":null,"ref":null,"tags":{"addr:state":"FL","amenity":"fire_station","ele":"2","gnis:feature_id":"2131323","name":"West Little River Fire Department Station 7","source":"USGS Geonames"}},"geometry":{"type":"Point","coordinates":[-80.2344977,25.8599313]}},{"type":"Feature","properties":{"id":"osm-node-367820204","osm_type":"node","osm_id":367820204,"category":"police","name":"Miami-Dade Fire Rescue Station 12 (MIA Midfield)","operator":null,"ref":null,"tags":{"addr:state":"FL","amenity":"fire_station","ele":"2","gnis:feature_id":"2131328","name":"Miami-Dade Fire Rescue Station 12 (MIA Midfield)","source":"USGS Geonames"}},"geometry":{"type":"Point","coordinates":[-80.292179,25.7973796]}},{"type":"Feature","properties":{"id":"osm-node-367820234","osm_type":"node","osm_id":367820234,"category":"police","name":"Virginia Gardens Fire Department Station 17","operator":null,"ref":null,"tags":{"addr:state":"FL","amenity":"fire_station","ele":"1","gnis:feature_id":"2131333","name":"Virginia Gardens Fire Department Station 17","source":"USGS Geonames"}},"geometry":{"type":"Point","coordinates":[-80.3118463,25.809006]}},{"type":"Feature","properties":{"id":"osm-node-367820238","osm_type":"node","osm_id":367820238,"category":"police","name":"South Miami Fire Department Station 14","operator":null,"ref":null,"tags":{"addr:state":"FL","amenity":"fire_station","ele":"3","gnis:feature_id":"2131330","name":"South Miami Fire Department Station 14","source":"USGS Geonames"}},"geometry":{"type":"Point","coordinates":[-80.2884721,25.7058826]}},{"type":"Feature","properties":{"id":"osm-node-367820242","osm_type":"node","osm_id":367820242,"category":"police","name":"Haulover Fire Department Station 21","operator":null,"ref":null,"tags":{"addr:city":"Miami Beach","addr:housenumber":"10500","addr:postcode":"33154","addr:state":"FL","addr:street":"Collins Avenue","amenity":"fire_station","ele":"4","gnis:feature_id":"2131336","name":"Haulover Fire Department Station 21","source":"USGS Geonames"}},"geometry":{"type":"Point","coordinates":[-80.1251569,25.9020062]}},{"type":"Feature","properties":{"id":"osm-node-367820246","osm_type":"node","osm_id":367820246,"category":"police","name":"North Miami East Fire Department Station 20","operator":null,"ref":null,"tags":{"addr:state":"FL","amenity":"fire_station","ele":"3","gnis:feature_id":"2131335","name":"North Miami East Fire Department Station 20","source":"USGS Geonames"}},"geometry":{"type":"Point","coordinates":[-80.1669631,25.8956735]}},{"type":"Feature","properties":{"id":"osm-node-367820247","osm_type":"node","osm_id":367820247,"category":"police","name":"North Miami West Fire Department Station 19","operator":null,"ref":null,"tags":{"addr:state":"FL","amenity":"fire_station","ele":"4","gnis:feature_id":"2131334","name":"North Miami West Fire Department Station 19","source":"USGS Geonames"}},"geometry":{"type":"Point","coordinates":[-80.2102415,25.894421]}},{"type":"Feature","properties":{"id":"osm-node-367820255","osm_type":"node","osm_id":367820255,"category":"police","name":"Northside Fire Department Station 59","operator":null,"ref":null,"tags":{"addr:state":"FL","amenity":"fire_station","check_date":"2024-08-04","ele":"2","gnis:feature_id":"2131306","name":"Northside Fire Department Station 59","source":"USGS Geonames"}},"geometry":{"type":"Point","coordinates":[-80.2885986,25.8065335]}},{"type":"Feature","properties":{"id":"osm-node-367820257","osm_type":"node","osm_id":367820257,"category":"police","name":"Hialeah Fire Department Station 3","operator":null,"ref":null,"tags":{"addr:state":"FL","amenity":"fire_station","ele":"1","gnis:feature_id":"2131311","name":"Hialeah Fire Department Station 3","source":"USGS Geonames"}},"geometry":{"type":"Point","coordinates":[-80.2991462,25.8661962]}},{"type":"Feature","properties":{"id":"osm-node-367820259","osm_type":"node","osm_id":367820259,"category":"police","name":"Hialeah Fire Department Station 4","operator":null,"ref":null,"tags":{"addr:state":"FL","amenity":"fire_station","ele":"1","gnis:feature_id":"2131312","name":"Hialeah Fire Department Station 4","source":"USGS Geonames"}},"geometry":{"type":"Point","coordinates":[-80.2765969,25.8325594]}},{"type":"Feature","properties":{"id":"osm-node-367820262","osm_type":"node","osm_id":367820262,"category":"police","name":"Hialeah Fire Department Station 2","operator":null,"ref":null,"tags":{"addr:state":"FL","amenity":"fire_station","ele":"1","gnis:feature_id":"2131310","name":"Hialeah Fire Department Station 2","source":"USGS Geonames"}},"geometry":{"type":"Point","coordinates":[-80.2792516,25.8288848]}},{"type":"Feature","properties":{"id":"osm-node-367820264","osm_type":"node","osm_id":367820264,"category":"police","name":"Hialeah Fire Department Station 7","operator":null,"ref":null,"tags":{"addr:state":"FL","amenity":"fire_station","ele":"1","gnis:feature_id":"2131315","name":"Hialeah Fire Department Station 7","source":"USGS Geonames"}},"geometry":{"type":"Point","coordinates":[-80.3325305,25.8909714]}},{"type":"Feature","properties":{"id":"osm-node-367820267","osm_type":"node","osm_id":367820267,"category":"police","name":"Hialeah Fire Department Station 5","operator":null,"ref":null,"tags":{"addr:state":"FL","amenity":"fire_station","ele":"1","gnis:feature_id":"2131313","name":"Hialeah Fire Department Station 5","source":"USGS Geonames"}},"geometry":{"type":"Point","coordinates":[-80.3073221,25.8900386]}},{"type":"Feature","properties":{"id":"osm-node-367820270","osm_type":"node","osm_id":367820270,"category":"police","name":"Hialeah Fire Department Station 6","operator":null,"ref":null,"tags":{"addr:state":"FL","amenity":"fire_station","ele":"2","gnis:feature_id":"2131314","name":"Hialeah Fire Department Station 6","source":"USGS Geonames"}},"geometry":{"type":"Point","coordinates":[-80.2977143,25.8439394]}},{"type":"Feature","properties":{"id":"osm-node-367820271","osm_type":"node","osm_id":367820271,"category":"police","name":"Tropical Park Fire Department Station 3","operator":null,"ref":null,"tags":{"addr:state":"FL","amenity":"fire_station","ele":"2","gnis:feature_id":"2131319","name":"Tropical Park Fire Department Station 3","source":"USGS Geonames"}},"geometry":{"type":"Point","coordinates":[-80.3271918,25.733978]}},{"type":"Feature","properties":{"id":"osm-node-367820275","osm_type":"node","osm_id":367820275,"category":"police","name":"Miami Fire / Rescue Station 2","operator":null,"ref":null,"tags":{"addr:state":"FL","amenity":"fire_station","ele":"4","gnis:feature_id":"2131317","name":"Miami Fire / Rescue Station 2","source":"USGS Geonames"}},"geometry":{"type":"Point","coordinates":[-80.1944929,25.7941252]}},{"type":"Feature","properties":{"id":"osm-node-367820355","osm_type":"node","osm_id":367820355,"category":"police","name":"Hollywood Fire / Rescue Station 105","operator":null,"ref":null,"tags":{"addr:state":"FL","amenity":"fire_station","ele":"1","gnis:feature_id":"2131386","name":"Hollywood Fire / Rescue Station 105","source":"USGS Geonames"}},"geometry":{"type":"Point","coordinates":[-80.1423661,25.9980694]}},{"type":"Feature","properties":{"id":"osm-node-367822270","osm_type":"node","osm_id":367822270,"category":"police","name":"Miami Fire and Rescue Training Center","operator":null,"ref":null,"tags":{"addr:state":"FL","amenity":"fire_station","ele":"4","gnis:feature_id":"304477","name":"Miami Fire and Rescue Training Center","source":"USGS Geonames"}},"geometry":{"type":"Point","coordinates":[-80.2569946,25.7267676]}},{"type":"Feature","properties":{"id":"osm-node-367822271","osm_type":"node","osm_id":367822271,"category":"police","name":"Miami-Dade County Fire and Rescue Headquarters","operator":null,"ref":null,"tags":{"addr:state":"FL","amenity":"fire_station","ele":"3","gnis:feature_id":"304408","name":"Miami-Dade County Fire and Rescue Headquarters","source":"USGS Geonames"}},"geometry":{"type":"Point","coordinates":[-80.3353301,25.7120462]}},{"type":"Feature","properties":{"id":"osm-node-367824486","osm_type":"node","osm_id":367824486,"category":"police","name":"Aventura Police Station","operator":null,"ref":null,"tags":{"addr:city":"Aventura","addr:postcode":"33180","addr:state":"FL","amenity":"police","ele":"2","gnis:feature_id":"2078824","name":"Aventura Police Station","source":"USGS Geonames"}},"geometry":{"type":"Point","coordinates":[-80.1391556,25.9528071]}},{"type":"Feature","properties":{"id":"osm-node-367824487","osm_type":"node","osm_id":367824487,"category":"police","name":"Bal Harbour Village Police Station","operator":"Bal Harbour Village","ref":null,"tags":{"addr:state":"FL","amenity":"police","ele":"0","gnis:feature_id":"2078835","name":"Bal Harbour Village Police Station","operator":"Bal Harbour Village","source":"USGS Geonames"}},"geometry":{"type":"Point","coordinates":[-80.1268206,25.8874244]}},{"type":"Feature","properties":{"id":"osm-node-367824494","osm_type":"node","osm_id":367824494,"category":"police","name":"Coral Gables Police Station","operator":null,"ref":null,"tags":{"addr:state":"FL","amenity":"police","ele":"4","gnis:feature_id":"2078620","name":"Coral Gables Police Station","source":"USGS Geonames"}},"geometry":{"type":"Point","coordinates":[-80.2604054,25.746042]}},{"type":"Feature","properties":{"id":"osm-node-367824498","osm_type":"node","osm_id":367824498,"category":"police","name":"Biscayne Park Police Station","operator":null,"ref":null,"tags":{"addr:state":"FL","amenity":"police","ele":"1","gnis:feature_id":"2078816","name":"Biscayne Park Police Station","source":"USGS Geonames"}},"geometry":{"type":"Point","coordinates":[-80.1855556,25.8794444]}},{"type":"Feature","properties":{"id":"osm-node-367824500","osm_type":"node","osm_id":367824500,"category":"police","name":"Golden Beach Police Station","operator":null,"ref":null,"tags":{"addr:state":"FL","amenity":"police","ele":"0","gnis:feature_id":"2078226","name":"Golden Beach Police Station","source":"USGS Geonames"}},"geometry":{"type":"Point","coordinates":[-80.1216667,25.9569444]}},{"type":"Feature","properties":{"id":"osm-node-367824501","osm_type":"node","osm_id":367824501,"category":"police","name":"Hallandale Police Station","operator":null,"ref":null,"tags":{"addr:city":"Hallandale Beach","addr:housenumber":"400","addr:postcode":"33009","addr:state":"FL","addr:street":"Federal Highway","amenity":"police","ele":"3","gnis:feature_id":"2078278","name":"Hallandale Police Station","source":"USGS Geonames"}},"geometry":{"type":"Point","coordinates":[-80.1434311,25.9803689]}},{"type":"Feature","properties":{"id":"osm-node-367824505","osm_type":"node","osm_id":367824505,"category":"police","name":"El Portal Police Station","operator":null,"ref":null,"tags":{"addr:state":"FL","amenity":"police","ele":"3","gnis:feature_id":"2078508","name":"El Portal Police Station","source":"USGS Geonames"}},"geometry":{"type":"Point","coordinates":[-80.1875382,25.8548466]}},{"type":"Feature","properties":{"id":"osm-node-367824507","osm_type":"node","osm_id":367824507,"category":"police","name":"Hialeah Police Station","operator":null,"ref":null,"tags":{"addr:state":"FL","amenity":"police","ele":"1","gnis:feature_id":"2078173","name":"Hialeah Police Station","source":"USGS Geonames"}},"geometry":{"type":"Point","coordinates":[-80.266506,25.8727413]}},{"type":"Feature","properties":{"id":"osm-node-367824510","osm_type":"node","osm_id":367824510,"category":"police","name":"Hialeah Metro Police Sub-Station Number 2","operator":null,"ref":null,"tags":{"addr:state":"FL","amenity":"police","ele":"2","gnis:feature_id":"2078172","name":"Hialeah Metro Police Sub-Station Number 2","source":"USGS Geonames"}},"geometry":{"type":"Point","coordinates":[-80.2455556,25.8488889]}},{"type":"Feature","properties":{"id":"osm-node-367824511","osm_type":"node","osm_id":367824511,"category":"police","name":"Hialeah Police Substation","operator":null,"ref":null,"tags":{"addr:state":"FL","amenity":"police","ele":"1","gnis:feature_id":"2078175","name":"Hialeah Police Substation","source":"USGS Geonames"}},"geometry":{"type":"Point","coordinates":[-80.2808333,25.8238889]}},{"type":"Feature","properties":{"id":"osm-node-367824513","osm_type":"node","osm_id":367824513,"category":"police","name":"Hialeah Police Substation","operator":null,"ref":null,"tags":{"addr:state":"FL","amenity":"police","ele":"1","gnis:feature_id":"2078174","name":"Hialeah Police Substation","source":"USGS Geonames"}},"geometry":{"type":"Point","coordinates":[-80.3322222,25.8905556]}},{"type":"Feature","properties":{"id":"osm-node-367824518","osm_type":"node","osm_id":367824518,"category":"police","name":"Hialeah Gardens Police Substation","operator":null,"ref":null,"tags":{"addr:state":"FL","amenity":"police","ele":"1","gnis:feature_id":"2078168","name":"Hialeah Gardens Police Substation","source":"USGS Geonames"}},"geometry":{"type":"Point","coordinates":[-80.3694444,25.8894444]}},{"type":"Feature","properties":{"id":"osm-node-367824520","osm_type":"node","osm_id":367824520,"category":"police","name":"Hialeah Gardens Police Station","operator":null,"ref":null,"tags":{"addr:state":"FL","amenity":"police","ele":"1","gnis:feature_id":"2078167","name":"Hialeah Gardens Police Station","source":"USGS Geonames"}},"geometry":{"type":"Point","coordinates":[-80.3391667,25.8630556]}},{"type":"Feature","properties":{"id":"osm-node-367824522","osm_type":"node","osm_id":367824522,"category":"police","name":"Medley Satellite Police Station","operator":null,"ref":null,"tags":{"addr:state":"FL","amenity":"police","ele":"1","gnis:feature_id":"2077836","name":"Medley Satellite Police Station","source":"USGS Geonames"}},"geometry":{"type":"Point","coordinates":[-80.3622222,25.8730556]}},{"type":"Feature","properties":{"id":"osm-node-367824523","osm_type":"node","osm_id":367824523,"category":"police","name":"Medley Police Station","operator":null,"ref":null,"tags":{"addr:state":"FL","amenity":"police","ele":"2","gnis:feature_id":"2077835","name":"Medley Police Station","source":"USGS Geonames"}},"geometry":{"type":"Point","coordinates":[-80.3175,25.8402778]}},{"type":"Feature","properties":{"id":"osm-node-367824529","osm_type":"node","osm_id":367824529,"category":"police","name":"Miami Omni Police Station","operator":null,"ref":null,"tags":{"addr:state":"FL","amenity":"police","ele":"1","gnis:feature_id":"2077761","name":"Miami Omni Police Station","source":"USGS Geonames"}},"geometry":{"type":"Point","coordinates":[-80.1883333,25.7894444]}},{"type":"Feature","properties":{"id":"osm-node-367824535","osm_type":"node","osm_id":367824535,"category":"police","name":"Miami Overtown Police Station","operator":null,"ref":null,"tags":{"addr:state":"FL","amenity":"police","ele":"7","gnis:feature_id":"2077762","name":"Miami Overtown Police Station","source":"USGS Geonames"}},"geometry":{"type":"Point","coordinates":[-80.2001859,25.7890267]}},{"type":"Feature","properties":{"id":"osm-node-367824811","osm_type":"node","osm_id":367824811,"category":"police","name":"Miami-Dade County Police Headquarters","operator":null,"ref":null,"tags":{"addr:state":"FL","amenity":"police","ele":"1","gnis:feature_id":"2077645","name":"Miami-Dade County Police Headquarters","source":"USGS Geonames"}},"geometry":{"type":"Point","coordinates":[-80.3439023,25.7984924]}},{"type":"Feature","properties":{"id":"osm-node-367824813","osm_type":"node","osm_id":367824813,"category":"police","name":"Miami Upper Eastside Police Station","operator":null,"ref":null,"tags":{"addr:state":"FL","amenity":"police","check_date":"2023-11-09","ele":"3","fixme":"No police station found at site","gnis:feature_id":"2077639","name":"Miami Upper Eastside Police Station","source":"USGS Geonames"}},"geometry":{"type":"Point","coordinates":[-80.1844444,25.8358333]}},{"type":"Feature","properties":{"id":"osm-node-367824816","osm_type":"node","osm_id":367824816,"category":"police","name":"Miami Springs Police Station","operator":null,"ref":null,"tags":{"addr:state":"FL","amenity":"police","ele":"1","gnis:feature_id":"2077633","name":"Miami Springs Police Station","source":"USGS Geonames"}},"geometry":{"type":"Point","coordinates":[-80.285,25.8208333]}},{"type":"Feature","properties":{"id":"osm-node-367824817","osm_type":"node","osm_id":367824817,"category":"police","name":"Miami Beach Police Station","operator":null,"ref":null,"tags":{"addr:city":"Miami Beach","addr:housenumber":"1100","addr:postcode":"33139","addr:state":"FL","addr:street":"Washington Avenue","amenity":"police","ele":"1","gnis:feature_id":"2077716","name":"Miami Beach Police Station","source":"USGS Geonames","wikidata":"Q14686227"}},"geometry":{"type":"Point","coordinates":[-80.1332266,25.7823546]}},{"type":"Feature","properties":{"id":"osm-node-367824819","osm_type":"node","osm_id":367824819,"category":"police","name":"Miami Bayside Police Mini Station","operator":null,"ref":null,"tags":{"addr:state":"FL","amenity":"police","ele":"0","gnis:feature_id":"2077705","name":"Miami Bayside Police Mini Station","source":"USGS Geonames"}},"geometry":{"type":"Point","coordinates":[-80.2458333,25.7172222]}},{"type":"Feature","properties":{"id":"osm-node-367824821","osm_type":"node","osm_id":367824821,"category":"police","name":"Miami Alapattah Police Station","operator":null,"ref":null,"tags":{"addr:state":"FL","amenity":"police","ele":"2","gnis:feature_id":"2077701","name":"Miami Alapattah Police Station","source":"USGS Geonames"}},"geometry":{"type":"Point","coordinates":[-80.2266667,25.795]}},{"type":"Feature","properties":{"id":"osm-node-367824828","osm_type":"node","osm_id":367824828,"category":"police","name":"Miccosukee Police Station","operator":null,"ref":null,"tags":{"addr:state":"FL","amenity":"police","ele":"3","gnis:feature_id":"2077647","name":"Miccosukee Police Station","source":"USGS Geonames"}},"geometry":{"type":"Point","coordinates":[-80.4819444,25.7594444]}},{"type":"Feature","properties":{"id":"osm-node-367824833","osm_type":"node","osm_id":367824833,"category":"police","name":"Miami East Havana Network Police Station","operator":null,"ref":null,"tags":{"addr:state":"FL","amenity":"police","ele":"2","gnis:feature_id":"2077732","name":"Miami East Havana Network Police Station","source":"USGS Geonames"}},"geometry":{"type":"Point","coordinates":[-80.2027778,25.7722222]}},{"type":"Feature","properties":{"id":"osm-node-367824839","osm_type":"node","osm_id":367824839,"category":"police","name":"Miami Downtown Police Station","operator":null,"ref":null,"tags":{"addr:state":"FL","amenity":"police","ele":"4","gnis:feature_id":"2077731","name":"Miami Downtown Police Station","source":"USGS Geonames"}},"geometry":{"type":"Point","coordinates":[-80.1952979,25.7824952]}},{"type":"Feature","properties":{"id":"osm-node-367824848","osm_type":"node","osm_id":367824848,"category":"police","name":"Miami North Police Station","operator":null,"ref":null,"tags":{"addr:state":"FL","amenity":"police","ele":"3","gnis:feature_id":"2077758","name":"Miami North Police Station","source":"USGS Geonames"}},"geometry":{"type":"Point","coordinates":[-80.2136111,25.8316667]}},{"type":"Feature","properties":{"id":"osm-node-367824852","osm_type":"node","osm_id":367824852,"category":"police","name":"Miami Flagami Network Police Station","operator":null,"ref":null,"tags":{"addr:state":"FL","amenity":"police","ele":"1","gnis:feature_id":"2077734","name":"Miami Flagami Network Police Station","source":"USGS Geonames"}},"geometry":{"type":"Point","coordinates":[-80.2594444,25.7825]}},{"type":"Feature","properties":{"id":"osm-node-367824854","osm_type":"node","osm_id":367824854,"category":"police","name":"Miami Edgewater Police Mini Station","operator":null,"ref":null,"tags":{"addr:state":"FL","amenity":"police","ele":"3","gnis:feature_id":"2077733","name":"Miami Edgewater Police Mini Station","source":"USGS Geonames"}},"geometry":{"type":"Point","coordinates":[-80.1897222,25.8002778]}},{"type":"Feature","properties":{"id":"osm-node-367824856","osm_type":"node","osm_id":367824856,"category":"police","name":"Sweetwater Police Station","operator":null,"ref":null,"tags":{"addr:state":"FL","amenity":"police","ele":"1","gnis:feature_id":"2077041","name":"Sweetwater Police Station","source":"USGS Geonames"}},"geometry":{"type":"Point","coordinates":[-80.3730556,25.7636111]}},{"type":"Feature","properties":{"id":"osm-node-367824857","osm_type":"node","osm_id":367824857,"category":"police","name":"Sunny Isles Beach Police Department","operator":null,"ref":null,"tags":{"addr:state":"FL","amenity":"police","ele":"2","gnis:feature_id":"2077084","level":"2","name":"Sunny Isles Beach Police Department","phone":"+1 305-947-4440","source":"USGS Geonames"}},"geometry":{"type":"Point","coordinates":[-80.1220169,25.9425961]}},{"type":"Feature","properties":{"id":"osm-node-367824859","osm_type":"node","osm_id":367824859,"category":"police","name":"Virginia Gardens Police Station","operator":null,"ref":null,"tags":{"addr:state":"FL","amenity":"police","ele":"2","gnis:feature_id":"2076891","name":"Virginia Gardens Police Station","source":"USGS Geonames"}},"geometry":{"type":"Point","coordinates":[-80.3022222,25.8091667]}},{"type":"Feature","properties":{"id":"osm-node-367824863","osm_type":"node","osm_id":367824863,"category":"police","name":"Pinecrest Police Station","operator":null,"ref":null,"tags":{"addr:state":"FL","amenity":"police","ele":"3","gnis:feature_id":"2077450","name":"Pinecrest Police Station","source":"USGS Geonames"}},"geometry":{"type":"Point","coordinates":[-80.3252778,25.6644444]}},{"type":"Feature","properties":{"id":"osm-node-367824864","osm_type":"node","osm_id":367824864,"category":"police","name":"Opalocka Police Mini Station","operator":null,"ref":null,"tags":{"addr:state":"FL","amenity":"police","ele":"3","gnis:feature_id":"2077508","name":"Opalocka Police Mini Station","source":"USGS Geonames"}},"geometry":{"type":"Point","coordinates":[-80.2336111,25.8977778]}},{"type":"Feature","properties":{"id":"osm-node-367824866","osm_type":"node","osm_id":367824866,"category":"police","name":"South Miami Police Station","operator":null,"ref":null,"tags":{"addr:state":"FL","amenity":"police","ele":"3","gnis:feature_id":"2077114","name":"South Miami Police Station","source":"USGS Geonames"}},"geometry":{"type":"Point","coordinates":[-80.2920733,25.7032875]}},{"type":"Feature","properties":{"id":"osm-node-367824872","osm_type":"node","osm_id":367824872,"category":"police","name":"North Miami Beach Police Station","operator":null,"ref":null,"tags":{"addr:state":"FL","amenity":"police","ele":"3","gnis:feature_id":"2077604","name":"North Miami Beach Police Station","source":"USGS Geonames"}},"geometry":{"type":"Point","coordinates":[-80.1622222,25.9313889]}},{"type":"Feature","properties":{"id":"osm-node-367824873","osm_type":"node","osm_id":367824873,"category":"police","name":"Opa-Locka Police Station","operator":null,"ref":null,"tags":{"addr:state":"FL","amenity":"police","ele":"3","gnis:feature_id":"2077509","name":"Opa-Locka Police Station","source":"USGS Geonames"}},"geometry":{"type":"Point","coordinates":[-80.2419444,25.9058333]}},{"type":"Feature","properties":{"id":"osm-node-367824875","osm_type":"node","osm_id":367824875,"category":"police","name":"North Bay Village Police Station","operator":null,"ref":null,"tags":{"addr:state":"FL","amenity":"police","ele":"1","gnis:feature_id":"2077578","name":"North Bay Village Police Station","source":"USGS Geonames"}},"geometry":{"type":"Point","coordinates":[-80.1580556,25.8486111]}},{"type":"Feature","properties":{"id":"osm-node-367824879","osm_type":"node","osm_id":367824879,"category":"police","name":"Miami Southwest Coconut Grove Network Police Station","operator":null,"ref":null,"tags":{"addr:state":"FL","amenity":"police","ele":"3","gnis:feature_id":"2077627","name":"Miami Southwest Coconut Grove Network Police Station","source":"USGS Geonames"}},"geometry":{"type":"Point","coordinates":[-80.2547222,25.7313889]}},{"type":"Feature","properties":{"id":"osm-node-367824915","osm_type":"node","osm_id":367824915,"category":"police","name":"West Miami Police Station","operator":null,"ref":null,"tags":{"addr:city":"West Miami","addr:housenumber":"901","addr:postcode":"33144","addr:state":"FL","addr:street":"Southwest 62nd Avenue","amenity":"police","ele":"3","gnis:feature_id":"2076853","name":"West Miami Police Station","opening_hours":"24/7","phone":"+1-305-266-0530"}},"geometry":{"type":"Point","coordinates":[-80.2954658,25.7621838]}},{"type":"Feature","properties":{"id":"osm-node-367825011","osm_type":"node","osm_id":367825011,"category":"police","name":"Miami Highway Patrol Troop E","operator":null,"ref":null,"tags":{"addr:state":"FL","amenity":"police","ele":"2","gnis:feature_id":"2333092","name":"Miami Highway Patrol Troop E","source":"USGS Geonames"}},"geometry":{"type":"Point","coordinates":[-80.3741145,25.781479]}},{"type":"Feature","properties":{"id":"osm-node-367825018","osm_type":"node","osm_id":367825018,"category":"police","name":"Miami Police Department - Little Haiti NET","operator":null,"ref":null,"tags":{"addr:state":"FL","amenity":"police","ele":"3","gnis:feature_id":"2333088","name":"Miami Police Department - Little Haiti NET","source":"USGS Geonames"}},"geometry":{"type":"Point","coordinates":[-80.2038722,25.8396112]}},{"type":"Feature","properties":{"id":"osm-node-367825020","osm_type":"node","osm_id":367825020,"category":"police","name":"Miami Police Department - Canine Unit","operator":null,"ref":null,"tags":{"addr:state":"FL","amenity":"police","ele":"3","gnis:feature_id":"2333086","name":"Miami Police Department - Canine Unit","source":"USGS Geonames"}},"geometry":{"type":"Point","coordinates":[-80.1943926,25.7820214]}},{"type":"Feature","properties":{"id":"osm-node-367825024","osm_type":"node","osm_id":367825024,"category":"police","name":"Palmetto Bay Police Department","operator":null,"ref":null,"tags":{"addr:state":"FL","amenity":"police","ele":"4","gnis:feature_id":"2333084","name":"Palmetto Bay Police Department","source":"USGS Geonames"}},"geometry":{"type":"Point","coordinates":[-80.3391313,25.6283862]}},{"type":"Feature","properties":{"id":"osm-node-367825026","osm_type":"node","osm_id":367825026,"category":"police","name":"Miami-Dade Police Department Professional Compliance Bureau","operator":null,"ref":null,"tags":{"addr:state":"FL","amenity":"police","ele":"2","gnis:feature_id":"2333083","name":"Miami-Dade Police Department Professional Compliance Bureau","source":"USGS Geonames"}},"geometry":{"type":"Point","coordinates":[-80.2444047,25.9454814]}},{"type":"Feature","properties":{"id":"osm-node-367825027","osm_type":"node","osm_id":367825027,"category":"police","name":"Doral Police Department","operator":null,"ref":null,"tags":{"addr:state":"FL","amenity":"police","ele":"1","gnis:feature_id":"2333082","name":"Doral Police Department","source":"USGS Geonames"}},"geometry":{"type":"Point","coordinates":[-80.331424,25.8206244]}},{"type":"Feature","properties":{"id":"osm-node-367825036","osm_type":"node","osm_id":367825036,"category":"police","name":"Miami Gardens Police Department","operator":null,"ref":null,"tags":{"addr:state":"FL","amenity":"police","ele":"2","gnis:feature_id":"2333076","name":"Miami Gardens Police Department","source":"USGS Geonames"}},"geometry":{"type":"Point","coordinates":[-80.2269154,25.9276754]}},{"type":"Feature","properties":{"id":"osm-node-367825046","osm_type":"node","osm_id":367825046,"category":"police","name":"Miami Police Department West Flagler NET","operator":null,"ref":null,"tags":{"addr:state":"FL","amenity":"police","ele":"3","gnis:feature_id":"2333103","name":"Miami Police Department West Flagler NET","source":"USGS Geonames"}},"geometry":{"type":"Point","coordinates":[-80.266593,25.7713593]}},{"type":"Feature","properties":{"id":"osm-node-367825051","osm_type":"node","osm_id":367825051,"category":"police","name":"Miami Police Department Little Havana NET","operator":null,"ref":null,"tags":{"addr:state":"FL","amenity":"police","ele":"1","gnis:feature_id":"2333102","name":"Miami Police Department Little Havana NET","source":"USGS Geonames"}},"geometry":{"type":"Point","coordinates":[-80.2159402,25.7746214]}},{"type":"Feature","properties":{"id":"osm-node-367825065","osm_type":"node","osm_id":367825065,"category":"police","name":"Florida Highway Patrol Snapper Creek Service Plaza","operator":null,"ref":null,"tags":{"addr:state":"FL","amenity":"police","ele":"3","gnis:feature_id":"2333094","name":"Florida Highway Patrol Snapper Creek Service Plaza","source":"USGS Geonames"}},"geometry":{"type":"Point","coordinates":[-80.3873975,25.6636664]}},{"type":"Feature","properties":{"id":"osm-node-367825193","osm_type":"node","osm_id":367825193,"category":"police","name":"Miami Police Department - NET","operator":null,"ref":null,"tags":{"addr:state":"FL","amenity":"police","ele":"3","gnis:feature_id":"2332962","name":"Miami Police Department - NET","source":"USGS Geonames"}},"geometry":{"type":"Point","coordinates":[-80.1875073,25.7788741]}},{"type":"Feature","properties":{"id":"osm-node-367825200","osm_type":"node","osm_id":367825200,"category":"police","name":"Metro - Dade Police Communications Bureau","operator":null,"ref":null,"tags":{"addr:state":"FL","amenity":"police","ele":"3","gnis:feature_id":"2332975","name":"Metro - Dade Police Communications Bureau","source":"USGS Geonames"}},"geometry":{"type":"Point","coordinates":[-80.3360369,25.7153218]}},{"type":"Feature","properties":{"id":"osm-node-367825224","osm_type":"node","osm_id":367825224,"category":"police","name":"Miami - Dade County Police Department","operator":null,"ref":null,"tags":{"addr:state":"FL","amenity":"police","ele":"2","gnis:feature_id":"2332986","name":"Miami - Dade County Police Department","source":"USGS Geonames"}},"geometry":{"type":"Point","coordinates":[-80.3257428,25.782883]}},{"type":"Feature","properties":{"id":"osm-node-367825230","osm_type":"node","osm_id":367825230,"category":"police","name":"Kendall Police Station","operator":null,"ref":null,"tags":{"addr:state":"FL","amenity":"police","ele":"2","gnis:feature_id":"2332987","name":"Kendall Police Station","source":"USGS Geonames"}},"geometry":{"type":"Point","coordinates":[-80.3808488,25.6967609]}},{"type":"Feature","properties":{"id":"osm-node-367825241","osm_type":"node","osm_id":367825241,"category":"police","name":"Miami - Dade County Police Department - Special Patrol","operator":null,"ref":null,"tags":{"addr:state":"FL","amenity":"police","ele":"2","gnis:feature_id":"2332994","name":"Miami - Dade County Police Department - Special Patrol","source":"USGS Geonames"}},"geometry":{"type":"Point","coordinates":[-80.3229987,25.7886276]}},{"type":"Feature","properties":{"id":"osm-node-367825251","osm_type":"node","osm_id":367825251,"category":"police","name":"Miami - Dade County Police Department","operator":null,"ref":null,"tags":{"addr:state":"FL","amenity":"police","ele":"2","gnis:feature_id":"2332989","name":"Miami - Dade County Police Department","source":"USGS Geonames"}},"geometry":{"type":"Point","coordinates":[-80.3234763,25.7876838]}},{"type":"Feature","properties":{"id":"osm-node-367825275","osm_type":"node","osm_id":367825275,"category":"police","name":"Miami - Dade County Police - Court Liaison","operator":null,"ref":null,"tags":{"addr:state":"FL","amenity":"police","ele":"3","gnis:feature_id":"2332945","name":"Miami - Dade County Police - Court Liaison","source":"USGS Geonames"}},"geometry":{"type":"Point","coordinates":[-80.2169223,25.7858081]}},{"type":"Feature","properties":{"id":"osm-node-367825291","osm_type":"node","osm_id":367825291,"category":"police","name":"Miami - Dade County Police Department","operator":null,"ref":null,"tags":{"addr:state":"FL","amenity":"police","ele":"2","gnis:feature_id":"2332951","name":"Miami - Dade County Police Department","source":"USGS Geonames"}},"geometry":{"type":"Point","coordinates":[-80.1965253,25.7735287]}},{"type":"Feature","properties":{"id":"osm-node-367825295","osm_type":"node","osm_id":367825295,"category":"police","name":"Miami - Dade County Police Department","operator":null,"ref":null,"tags":{"addr:state":"FL","amenity":"police","ele":"1","gnis:feature_id":"2332949","name":"Miami - Dade County Police Department","source":"USGS Geonames"}},"geometry":{"type":"Point","coordinates":[-80.1664246,25.8486052]}},{"type":"Feature","properties":{"id":"osm-node-367825304","osm_type":"node","osm_id":367825304,"category":"police","name":"Miami Police Department - Crime Suppression","operator":null,"ref":null,"tags":{"addr:state":"FL","amenity":"police","ele":"1","gnis:feature_id":"2332960","name":"Miami Police Department - Crime Suppression","source":"USGS Geonames"}},"geometry":{"type":"Point","coordinates":[-80.1615589,25.895039]}},{"type":"Feature","properties":{"id":"osm-node-367825306","osm_type":"node","osm_id":367825306,"category":"police","name":"Miami - Dade County Metro Police Department","operator":null,"ref":null,"tags":{"addr:state":"FL","amenity":"police","ele":"2","gnis:feature_id":"2332959","name":"Miami - Dade County Metro Police Department","source":"USGS Geonames"}},"geometry":{"type":"Point","coordinates":[-80.3254629,25.7835274]}},{"type":"Feature","properties":{"id":"osm-node-367825319","osm_type":"node","osm_id":367825319,"category":"police","name":"Miami Police Department","operator":null,"ref":null,"tags":{"addr:state":"FL","amenity":"police","ele":"1","gnis:feature_id":"2332956","name":"Miami Police Department","source":"USGS Geonames"}},"geometry":{"type":"Point","coordinates":[-80.23449,25.72828]}},{"type":"Feature","properties":{"id":"osm-node-367825321","osm_type":"node","osm_id":367825321,"category":"police","name":"North Miami Beach Police Department - Neighborhood Resource Center","operator":null,"ref":null,"tags":{"addr:state":"FL","amenity":"police","ele":"2","gnis:feature_id":"2332955","name":"North Miami Beach Police Department - Neighborhood Resource Center","source":"USGS Geonames"}},"geometry":{"type":"Point","coordinates":[-80.1692005,25.9159614]}},{"type":"Feature","properties":{"id":"osm-node-367825326","osm_type":"node","osm_id":367825326,"category":"police","name":"Miami - Dade County Police Department","operator":null,"ref":null,"tags":{"addr:state":"FL","amenity":"police","ele":"2","gnis:feature_id":"2333039","name":"Miami - Dade County Police Department","source":"USGS Geonames"}},"geometry":{"type":"Point","coordinates":[-80.2448589,25.9414956]}},{"type":"Feature","properties":{"id":"osm-node-367825327","osm_type":"node","osm_id":367825327,"category":"police","name":"Miami - Dade County Police Department","operator":null,"ref":null,"tags":{"addr:state":"FL","amenity":"police","ele":"2","gnis:feature_id":"2333040","name":"Miami - Dade County Police Department","source":"USGS Geonames"}},"geometry":{"type":"Point","coordinates":[-80.3235571,25.7886416]}},{"type":"Feature","properties":{"id":"osm-node-367825331","osm_type":"node","osm_id":367825331,"category":"police","name":"Miami - Dade County Police Department - Dare","operator":null,"ref":null,"tags":{"addr:state":"FL","amenity":"police","ele":"1","gnis:feature_id":"2333042","name":"Miami - Dade County Police Department - Dare","source":"USGS Geonames"}},"geometry":{"type":"Point","coordinates":[-80.3433811,25.7976133]}},{"type":"Feature","properties":{"id":"osm-node-367825334","osm_type":"node","osm_id":367825334,"category":"police","name":"Miami Police Department - Internal Affairs","operator":null,"ref":null,"tags":{"addr:state":"FL","amenity":"police","ele":"2","gnis:feature_id":"2333044","name":"Miami Police Department - Internal Affairs","source":"USGS Geonames"}},"geometry":{"type":"Point","coordinates":[-80.1982989,25.7783469]}},{"type":"Feature","properties":{"id":"osm-node-367825335","osm_type":"node","osm_id":367825335,"category":"police","name":"Miami Police Department - Administration","operator":null,"ref":null,"tags":{"addr:state":"FL","amenity":"police","ele":"2","gnis:feature_id":"2333045","name":"Miami Police Department - Administration","source":"USGS Geonames"}},"geometry":{"type":"Point","coordinates":[-80.1983065,25.7780973]}},{"type":"Feature","properties":{"id":"osm-node-367825345","osm_type":"node","osm_id":367825345,"category":"police","name":"Hialeah Police Department - Property and Evidence","operator":null,"ref":null,"tags":{"addr:state":"FL","amenity":"police","ele":"1","gnis:feature_id":"2333052","name":"Hialeah Police Department - Property and Evidence","source":"USGS Geonames"}},"geometry":{"type":"Point","coordinates":[-80.2663295,25.872565]}},{"type":"Feature","properties":{"id":"osm-node-367825350","osm_type":"node","osm_id":367825350,"category":"police","name":"Miami - Dade County Police Department Northside Station","operator":null,"ref":null,"tags":{"addr:state":"FL","amenity":"police","ele":"2","gnis:feature_id":"2333055","name":"Miami - Dade County Police Department Northside Station","source":"USGS Geonames"}},"geometry":{"type":"Point","coordinates":[-80.245233,25.8492433]}},{"type":"Feature","properties":{"id":"osm-node-367825353","osm_type":"node","osm_id":367825353,"category":"police","name":"Cooper City Police Department","operator":null,"ref":null,"tags":{"addr:state":"FL","amenity":"police","ele":"1","gnis:feature_id":"2333056","name":"Cooper City Police Department","source":"USGS Geonames"}},"geometry":{"type":"Point","coordinates":[-80.2871683,26.0438499]}},{"type":"Feature","properties":{"id":"osm-node-367825361","osm_type":"node","osm_id":367825361,"category":"police","name":"Metro Dade County Police Department","operator":null,"ref":null,"tags":{"addr:state":"FL","amenity":"police","ele":"1","gnis:feature_id":"2333064","name":"Metro Dade County Police Department","source":"USGS Geonames"}},"geometry":{"type":"Point","coordinates":[-80.3433104,25.7975826]}},{"type":"Feature","properties":{"id":"osm-node-367825364","osm_type":"node","osm_id":367825364,"category":"police","name":"Miami - Dade County Police Department Hammocks Station","operator":null,"ref":null,"tags":{"addr:state":"FL","amenity":"police","ele":"1","gnis:feature_id":"2333063","name":"Miami - Dade County Police Department Hammocks Station","source":"USGS Geonames"}},"geometry":{"type":"Point","coordinates":[-80.4229951,25.6746017]}},{"type":"Feature","properties":{"id":"osm-node-367825365","osm_type":"node","osm_id":367825365,"category":"police","name":"Seminole Police Department","operator":null,"ref":null,"tags":{"addr:state":"FL","amenity":"police","ele":"2","gnis:feature_id":"2333066","name":"Seminole Police Department","source":"USGS Geonames"}},"geometry":{"type":"Point","coordinates":[-80.2171811,26.0386392]}},{"type":"Feature","properties":{"id":"osm-node-367825367","osm_type":"node","osm_id":367825367,"category":"police","name":"Miami - Dade Police Department Metropolitan Police Institute (Training Bureau)","operator":null,"ref":null,"tags":{"addr:state":"FL","amenity":"police","ele":"1","gnis:feature_id":"2333065","name":"Miami - Dade Police Department Metropolitan Police Institute (Training Bureau)","source":"USGS Geonames"}},"geometry":{"type":"Point","coordinates":[-80.3518938,25.8269018]}},{"type":"Feature","properties":{"id":"osm-node-367825370","osm_type":"node","osm_id":367825370,"category":"police","name":"Miami - Dade County Police - Investigation","operator":null,"ref":null,"tags":{"addr:state":"FL","amenity":"police","ele":"2","gnis:feature_id":"2333067","name":"Miami - Dade County Police - Investigation","source":"USGS Geonames"}},"geometry":{"type":"Point","coordinates":[-80.3258465,25.7835281]}},{"type":"Feature","properties":{"id":"osm-node-367825391","osm_type":"node","osm_id":367825391,"category":"police","name":"Miami - Dade County Police Department - Warrants Bureau","operator":null,"ref":null,"tags":{"addr:state":"FL","amenity":"police","ele":"1","gnis:feature_id":"2333004","name":"Miami - Dade County Police Department - Warrants Bureau","source":"USGS Geonames"}},"geometry":{"type":"Point","coordinates":[-80.3433819,25.7975783]}},{"type":"Feature","properties":{"id":"osm-node-367825402","osm_type":"node","osm_id":367825402,"category":"police","name":"Miami - Dade County Police Department","operator":null,"ref":null,"tags":{"addr:state":"FL","amenity":"police","ele":"2","gnis:feature_id":"2333011","name":"Miami - Dade County Police Department","source":"USGS Geonames"}},"geometry":{"type":"Point","coordinates":[-80.4193153,25.6495131]}},{"type":"Feature","properties":{"id":"osm-node-367825404","osm_type":"node","osm_id":367825404,"category":"police","name":"Miami - Dade College Police Department","operator":null,"ref":null,"tags":{"addr:state":"FL","amenity":"police","ele":"1","gnis:feature_id":"2333012","name":"Miami - Dade College Police Department","source":"USGS Geonames"}},"geometry":{"type":"Point","coordinates":[-80.2454642,25.877862]}},{"type":"Feature","properties":{"id":"osm-node-367825407","osm_type":"node","osm_id":367825407,"category":"police","name":"Miami Lakes Police Department","operator":null,"ref":null,"tags":{"addr:state":"FL","amenity":"police","ele":"1","gnis:feature_id":"2333010","name":"Miami Lakes Police Department","source":"USGS Geonames"}},"geometry":{"type":"Point","coordinates":[-80.2982492,25.9100565]}},{"type":"Feature","properties":{"id":"osm-node-367825412","osm_type":"node","osm_id":367825412,"category":"police","name":"Miami - Dade School Police Department","operator":null,"ref":null,"tags":{"addr:state":"FL","amenity":"police","ele":"3","gnis:feature_id":"2333013","name":"Miami - Dade School Police Department","source":"USGS Geonames"}},"geometry":{"type":"Point","coordinates":[-80.1999736,25.8315444]}},{"type":"Feature","properties":{"id":"osm-node-367825413","osm_type":"node","osm_id":367825413,"category":"police","name":"Miami - Dade County Police Department","operator":null,"ref":null,"tags":{"addr:state":"FL","amenity":"police","ele":"2","gnis:feature_id":"2333014","name":"Miami - Dade County Police Department","source":"USGS Geonames"}},"geometry":{"type":"Point","coordinates":[-80.1950077,25.7746004]}},{"type":"Feature","properties":{"id":"osm-node-367825420","osm_type":"node","osm_id":367825420,"category":"police","name":"Sweetwater Police Department","operator":null,"ref":null,"tags":{"addr:state":"FL","amenity":"police","ele":"1","gnis:feature_id":"2333017","name":"Sweetwater Police Department","source":"USGS Geonames"}},"geometry":{"type":"Point","coordinates":[-80.38071,25.7683]}},{"type":"Feature","properties":{"id":"osm-node-367825424","osm_type":"node","osm_id":367825424,"category":"police","name":"Miami - Dade County Police Department - Evidence","operator":null,"ref":null,"tags":{"addr:state":"FL","amenity":"police","ele":"1","gnis:feature_id":"2333022","name":"Miami - Dade County Police Department - Evidence","source":"USGS Geonames"}},"geometry":{"type":"Point","coordinates":[-80.3433063,25.797614]}},{"type":"Feature","properties":{"id":"osm-node-367825428","osm_type":"node","osm_id":367825428,"category":"police","name":"North Miami Beach Police Department - Neighborhood Resource","operator":null,"ref":null,"tags":{"addr:state":"FL","amenity":"police","ele":"1","gnis:feature_id":"2333032","name":"North Miami Beach Police Department - Neighborhood Resource","source":"USGS Geonames"}},"geometry":{"type":"Point","coordinates":[-80.1560523,25.9003596]}},{"type":"Feature","properties":{"id":"osm-node-367825432","osm_type":"node","osm_id":367825432,"category":"police","name":"Miami - Dade County Police Department","operator":null,"ref":null,"tags":{"addr:state":"FL","amenity":"police","ele":"2","gnis:feature_id":"2333029","name":"Miami - Dade County Police Department","source":"USGS Geonames"}},"geometry":{"type":"Point","coordinates":[-80.3244741,25.782974]}},{"type":"Feature","properties":{"id":"osm-node-367825434","osm_type":"node","osm_id":367825434,"category":"police","name":"Broward County Sheriff's Office","operator":null,"ref":null,"tags":{"addr:state":"FL","amenity":"police","ele":"1","gnis:feature_id":"2333025","name":"Broward County Sheriff's Office","source":"USGS Geonames"}},"geometry":{"type":"Point","coordinates":[-80.1758313,25.9854642]}},{"type":"Feature","properties":{"id":"osm-node-367825436","osm_type":"node","osm_id":367825436,"category":"police","name":"Miami Police Department - Investigations","operator":null,"ref":null,"tags":{"addr:state":"FL","amenity":"police","ele":"2","gnis:feature_id":"2333037","name":"Miami Police Department - Investigations","source":"USGS Geonames"}},"geometry":{"type":"Point","coordinates":[-80.1983027,25.7782221]}},{"type":"Feature","properties":{"id":"osm-node-2532924905","osm_type":"node","osm_id":2532924905,"category":"police","name":"University of Miami Police Department","operator":null,"ref":null,"tags":{"addr:city":"Coral Gables","addr:housename":"Flipse Building","addr:housenumber":"5665","addr:postcode":"33146","addr:state":"FL","addr:street":"Ponce de Leon Boulevard","amenity":"police","name":"University of Miami Police Department","phone":"+1-305-284-6666","wheelchair":"yes"}},"geometry":{"type":"Point","coordinates":[-80.2804864,25.7127465]}},{"type":"Feature","properties":{"id":"osm-node-4514812890","osm_type":"node","osm_id":4514812890,"category":"police","name":"Fire Rescue City of Miami","operator":null,"ref":null,"tags":{"amenity":"fire_station","name":"Fire Rescue City of Miami","name:en":"Fire Rescue City of Miami"}},"geometry":{"type":"Point","coordinates":[-80.1757128,25.8480132]}},{"type":"Feature","properties":{"id":"osm-node-4665244454","osm_type":"node","osm_id":4665244454,"category":"police","name":"Davie Fire/ Rescue Station 91","operator":null,"ref":null,"tags":{"amenity":"fire_station","name":"Davie Fire/ Rescue Station 91"}},"geometry":{"type":"Point","coordinates":[-80.3459083,26.0432473]}},{"type":"Feature","properties":{"id":"osm-node-5115694312","osm_type":"node","osm_id":5115694312,"category":"police","name":"Key Biscayne Police Station","operator":null,"ref":null,"tags":{"amenity":"police","gnis:feature_id":"2078038","name":"Key Biscayne Police Station"}},"geometry":{"type":"Point","coordinates":[-80.16499,25.6909848]}},{"type":"Feature","properties":{"id":"osm-node-5163595931","osm_type":"node","osm_id":5163595931,"category":"police","name":"Miami Fire-Rescue Station 5","operator":null,"ref":null,"tags":{"addr:city":"Miami","addr:housenumber":"1200","addr:state":"FL","addr:street":"Northwest 20th Street","amenity":"fire_station","name":"Miami Fire-Rescue Station 5"}},"geometry":{"type":"Point","coordinates":[-80.2154557,25.7947958]}},{"type":"Feature","properties":{"id":"osm-node-6060697769","osm_type":"node","osm_id":6060697769,"category":"police","name":"Miami-Dade Fire Rescue Station 40","operator":null,"ref":null,"tags":{"addr:city":"West Miami","addr:housenumber":"975","addr:postcode":"33144","addr:state":"FL","addr:street":"Southwest 62nd Avenue","amenity":"fire_station","name":"Miami-Dade Fire Rescue Station 40","website":"https://www.miamidade.gov/global/service.page?Mduid_service=ser1526396325192928"}},"geometry":{"type":"Point","coordinates":[-80.2956127,25.7619528]}},{"type":"Feature","properties":{"id":"osm-node-6221630285","osm_type":"node","osm_id":6221630285,"category":"police","name":"Hallandale Beach Fire Rescue Station 7","operator":null,"ref":null,"tags":{"addr:postcode":"33309","addr:street":"111 Foster Rd","amenity":"fire_station","name":"Hallandale Beach Fire Rescue Station 7"}},"geometry":{"type":"Point","coordinates":[-80.1496659,25.990943]}},{"type":"Feature","properties":{"id":"osm-node-6365073265","osm_type":"node","osm_id":6365073265,"category":"police","name":"FIU Police Department","operator":null,"ref":null,"tags":{"amenity":"police","name":"FIU Police Department"}},"geometry":{"type":"Point","coordinates":[-80.3721309,25.7598874]}},{"type":"Feature","properties":{"id":"osm-node-10580626072","osm_type":"node","osm_id":10580626072,"category":"police","name":"Pinecrest Police Station","operator":null,"ref":null,"tags":{"addr:city":"Pinecrest","addr:housenumber":"12645","addr:postcode":"33156","addr:state":"FL","addr:street":"Pinecrest Pkwy","amenity":"police","name":"Pinecrest Police Station"}},"geometry":{"type":"Point","coordinates":[-80.3286062,25.6528809]}},{"type":"Feature","properties":{"id":"osm-node-12172945096","osm_type":"node","osm_id":12172945096,"category":"police","name":"Marine Police","operator":null,"ref":null,"tags":{"amenity":"police","name":"Marine Police"}},"geometry":{"type":"Point","coordinates":[-80.1731974,25.7852516]}}]}