{"type":"FeatureCollection","generated_at":"2026-04-23T05:58:37.249Z","region":"phoenix","bbox":[-112.45,33.25,-111.75,33.8],"category":"data-centers","feature_count":13,"features":[{"type":"Feature","properties":{"id":"osm-node-7557854384","osm_type":"node","osm_id":7557854384,"category":"data-centers","name":"OptimumHQ","operator":null,"ref":null,"tags":{"addr:city":"Mesa","addr:housenumber":"1955","addr:postcode":"85206","addr:state":"AZ","addr:street":"South Val Vista Drive","name":"OptimumHQ","source":"esri/USA_NAD_Addresses","telecom":"data_center"}},"geometry":{"type":"Point","coordinates":[-111.7526684,33.3804149]}},{"type":"Feature","properties":{"id":"osm-node-7557868585","osm_type":"node","osm_id":7557868585,"category":"data-centers","name":"The Chatfield Group","operator":null,"ref":null,"tags":{"addr:city":"Mesa","addr:housenumber":"1955","addr:postcode":"85206","addr:state":"AZ","addr:street":"South Val Vista Drive","name":"The Chatfield Group","source":"esri/USA_NAD_Addresses","telecom":"data_center"}},"geometry":{"type":"Point","coordinates":[-111.7528888,33.380601]}},{"type":"Feature","properties":{"id":"osm-node-7578821329","osm_type":"node","osm_id":7578821329,"category":"data-centers","name":"All About Serving Process Server","operator":null,"ref":null,"tags":{"addr:city":"Chandler","addr:housenumber":"1909","addr:postcode":"85225","addr:state":"AZ","addr:street":"East Ray Road","name":"All About Serving Process Server","source":"esri/USA_NAD_Addresses","telecom":"data_center"}},"geometry":{"type":"Point","coordinates":[-111.809686,33.3199157]}},{"type":"Feature","properties":{"id":"osm-node-7737996606","osm_type":"node","osm_id":7737996606,"category":"data-centers","name":"Emailage","operator":null,"ref":null,"tags":{"name":"Emailage","telecom":"data_center"}},"geometry":{"type":"Point","coordinates":[-111.8405386,33.302965]}},{"type":"Feature","properties":{"id":"osm-node-10796113031","osm_type":"node","osm_id":10796113031,"category":"data-centers","name":"VaultLogix","operator":null,"ref":null,"tags":{"name":"VaultLogix","telecom":"data_center"}},"geometry":{"type":"Point","coordinates":[-111.9017033,33.627367]}},{"type":"Feature","properties":{"id":"osm-node-10796113033","osm_type":"node","osm_id":10796113033,"category":"data-centers","name":"Profit Finder Pro Software","operator":null,"ref":null,"tags":{"name":"Profit Finder Pro Software","telecom":"data_center"}},"geometry":{"type":"Point","coordinates":[-111.9020476,33.6272477]}},{"type":"Feature","properties":{"id":"osm-node-10798644674","osm_type":"node","osm_id":10798644674,"category":"data-centers","name":"DataPro USA Web Development","operator":null,"ref":null,"tags":{"name":"DataPro USA Web Development","telecom":"data_center"}},"geometry":{"type":"Point","coordinates":[-111.9139825,33.6116624]}},{"type":"Feature","properties":{"id":"osm-node-10938672218","osm_type":"node","osm_id":10938672218,"category":"data-centers","name":"K-Motion Interactive","operator":null,"ref":null,"tags":{"name":"K-Motion Interactive","telecom":"data_center"}},"geometry":{"type":"Point","coordinates":[-111.8843457,33.6344843]}},{"type":"Feature","properties":{"id":"osm-node-11018926315","osm_type":"node","osm_id":11018926315,"category":"data-centers","name":"Iron Mountain Data Centers AZS-1","operator":null,"ref":null,"tags":{"name":"Iron Mountain Data Centers AZS-1","telecom":"data_center"}},"geometry":{"type":"Point","coordinates":[-111.8960985,33.6446663]}},{"type":"Feature","properties":{"id":"osm-node-11113161710","osm_type":"node","osm_id":11113161710,"category":"data-centers","name":"Accelera Data Systems","operator":null,"ref":null,"tags":{"name":"Accelera Data Systems","telecom":"data_center"}},"geometry":{"type":"Point","coordinates":[-112.1117142,33.6647455]}},{"type":"Feature","properties":{"id":"osm-node-11666916913","osm_type":"node","osm_id":11666916913,"category":"data-centers","name":"EdgeConneX Data Center","operator":"EdgeConneX","ref":null,"tags":{"name":"EdgeConneX Data Center","operator":"EdgeConneX","operator:wikidata":"Q115477226","telecom":"data_center"}},"geometry":{"type":"Point","coordinates":[-111.9700762,33.3955855]}},{"type":"Feature","properties":{"id":"osm-node-11938614120","osm_type":"node","osm_id":11938614120,"category":"data-centers","name":"Alembic Computer Services, Inc.","operator":null,"ref":null,"tags":{"name":"Alembic Computer Services, Inc.","telecom":"data_center"}},"geometry":{"type":"Point","coordinates":[-111.9773353,33.4051307]}},{"type":"Feature","properties":{"id":"osm-node-11938631189","osm_type":"node","osm_id":11938631189,"category":"data-centers","name":"J-Curve Technologies","operator":null,"ref":null,"tags":{"name":"J-Curve Technologies","telecom":"data_center"}},"geometry":{"type":"Point","coordinates":[-111.9711539,33.4131856]}}]}