{"type":"FeatureCollection","generated_at":"2026-04-23T05:58:13.298Z","region":"phoenix","bbox":[-112.45,33.25,-111.75,33.8],"category":"police","feature_count":38,"features":[{"type":"Feature","properties":{"id":"osm-node-366219669","osm_type":"node","osm_id":366219669,"category":"police","name":"Phoenix Fire Station Number 31","operator":null,"ref":null,"tags":{"addr:city":"Phoenix","addr:housenumber":"5730","addr:postcode":"85254","addr:state":"AZ","addr:street":"East Thunderbird Road","amenity":"fire_station","ele":"432","gnis:feature_id":"2466268","name":"Phoenix Fire Station Number 31","source":"esri/USA_NAD_Addresses"}},"geometry":{"type":"Point","coordinates":[-111.957404,33.611901]}},{"type":"Feature","properties":{"id":"osm-node-366219676","osm_type":"node","osm_id":366219676,"category":"police","name":"Phoenix Fire Station Number 7","operator":null,"ref":null,"tags":{"addr:state":"AZ","amenity":"fire_station","ele":"387","gnis:feature_id":"2466284","name":"Phoenix Fire Station Number 7"}},"geometry":{"type":"Point","coordinates":[-112.068142,33.571149]}},{"type":"Feature","properties":{"id":"osm-node-366219799","osm_type":"node","osm_id":366219799,"category":"police","name":"Phoenix Fire Station Number 20","operator":null,"ref":null,"tags":{"addr:state":"AZ","amenity":"fire_station","ele":"359","gnis:feature_id":"2466620","name":"Phoenix Fire Station Number 20"}},"geometry":{"type":"Point","coordinates":[-112.0834963,33.5386266]}},{"type":"Feature","properties":{"id":"osm-node-609509890","osm_type":"node","osm_id":609509890,"category":"police","name":"City of Goodyear","operator":null,"ref":null,"tags":{"addr:city":"Goodyear","addr:housenumber":"1111","addr:postcode":"85338","addr:state":"AZ","addr:street":"South Litchfield Road","amenity":"police","name":"City of Goodyear","source":"esri/USA_NAD_Addresses;esri_USDOT_Arizona"}},"geometry":{"type":"Point","coordinates":[-112.3579142,33.4362738]}},{"type":"Feature","properties":{"id":"osm-node-814577462","osm_type":"node","osm_id":814577462,"category":"police","name":"Fire Administration Building","operator":null,"ref":"GDY","tags":{"addr:city":"Goodyear","addr:housenumber":"14455","addr:postcode":"85338","addr:state":"AZ","addr:street":"West Van Buren Street","addr:unit":"E103","amenity":"fire_station","name":"Fire Administration Building","phone":"+1-623-932-2300","ref":"GDY","source":"https://www.goodyearaz.gov/Home/Components/FacilityDirectory/FacilityDirectory/14/50"}},"geometry":{"type":"Point","coordinates":[-112.3693723,33.4483825]}},{"type":"Feature","properties":{"id":"osm-node-1664695172","osm_type":"node","osm_id":1664695172,"category":"police","name":"Salt River Fire Station 291","operator":null,"ref":null,"tags":{"addr:city":"Scottsdale","addr:country":"US","addr:housenumber":"10005","addr:postcode":"85265","addr:state":"AZ","addr:street":"East Osborn Road","amenity":"fire_station","name":"Salt River Fire Station 291"}},"geometry":{"type":"Point","coordinates":[-111.8620107,33.4872595]}},{"type":"Feature","properties":{"id":"osm-node-2303440690","osm_type":"node","osm_id":2303440690,"category":"police","name":null,"operator":null,"ref":null,"tags":{"amenity":"police"}},"geometry":{"type":"Point","coordinates":[-112.0369547,33.5305595]}},{"type":"Feature","properties":{"id":"osm-node-2871604699","osm_type":"node","osm_id":2871604699,"category":"police","name":"Community Police Station","operator":null,"ref":null,"tags":{"addr:city":"Phoenix","addr:housenumber":"750","addr:postcode":"85029","addr:state":"AZ","addr:street":"West Peoria Avenue","amenity":"police","name":"Community Police Station","source":"esri/USA_NAD_Addresses"}},"geometry":{"type":"Point","coordinates":[-112.083356,33.5824965]}},{"type":"Feature","properties":{"id":"osm-node-3095026888","osm_type":"node","osm_id":3095026888,"category":"police","name":"Phoenix PD Airport Bureau","operator":null,"ref":null,"tags":{"amenity":"police","name":"Phoenix PD Airport Bureau","source":"knowledge"}},"geometry":{"type":"Point","coordinates":[-112.0087059,33.4362506]}},{"type":"Feature","properties":{"id":"osm-node-3101296808","osm_type":"node","osm_id":3101296808,"category":"police","name":"Tempe Police Property Room","operator":null,"ref":null,"tags":{"addr:city":"Tempe","addr:housenumber":"1875","addr:postcode":"85281","addr:state":"AZ","addr:street":"East Apache Boulevard","amenity":"police","name":"Tempe Police Property Room"}},"geometry":{"type":"Point","coordinates":[-111.905468,33.4115615]}},{"type":"Feature","properties":{"id":"osm-node-5243650308","osm_type":"node","osm_id":5243650308,"category":"police","name":"Chandler Fire Department Station No. 5","operator":"City Of Chandler","ref":null,"tags":{"addr:city":"Chandler","addr:housenumber":"1775","addr:postcode":"85248","addr:state":"AZ","addr:street":"West Queen Creek Road","amenity":"fire_station","name":"Chandler Fire Department Station No. 5","operator":"City Of Chandler"}},"geometry":{"type":"Point","coordinates":[-111.8714665,33.2612031]}},{"type":"Feature","properties":{"id":"osm-node-5243660320","osm_type":"node","osm_id":5243660320,"category":"police","name":"Chandler Fire Health & Medical Station 288","operator":null,"ref":null,"tags":{"addr:city":"Chandler","addr:country":"US","addr:housenumber":"711","addr:postcode":"85225","addr:state":"AZ","addr:street":"West Frye Road","amenity":"fire_station","name":"Chandler Fire Health & Medical Station 288"}},"geometry":{"type":"Point","coordinates":[-111.8513963,33.2984175]}},{"type":"Feature","properties":{"id":"osm-node-5244878486","osm_type":"node","osm_id":5244878486,"category":"police","name":"Arizona Fire Medical Authority Fire Station 343","operator":null,"ref":null,"tags":{"addr:city":"Guadalupe","addr:housenumber":"8413","addr:postcode":"85283","addr:state":"AZ","addr:street":"South Avenida del Yaqui","amenity":"fire_station","name":"Arizona Fire Medical Authority Fire Station 343","website":"https://www.afma.az.gov/facilities#A12C6400-FE26-4142-8317-8C65FF2DB284"}},"geometry":{"type":"Point","coordinates":[-111.9628787,33.3694974]}},{"type":"Feature","properties":{"id":"osm-node-5257153786","osm_type":"node","osm_id":5257153786,"category":"police","name":"Peoria Fire-Medical Station 195","operator":"City Of Peoria","ref":null,"tags":{"addr:city":"Peoria","addr:housenumber":"23100","addr:postcode":"85383","addr:state":"AZ","addr:street":"North Lake Pleasant Parkway","amenity":"fire_station","name":"Peoria Fire-Medical Station 195","operator":"City Of Peoria"}},"geometry":{"type":"Point","coordinates":[-112.277779,33.6928924]}},{"type":"Feature","properties":{"id":"osm-node-5257164752","osm_type":"node","osm_id":5257164752,"category":"police","name":"Peoria Fire-Medical Station 196","operator":null,"ref":null,"tags":{"amenity":"fire_station","name":"Peoria Fire-Medical Station 196"}},"geometry":{"type":"Point","coordinates":[-112.3246821,33.7388633]}},{"type":"Feature","properties":{"id":"osm-node-5257346661","osm_type":"node","osm_id":5257346661,"category":"police","name":"Salt River Fire Station 294","operator":null,"ref":null,"tags":{"addr:city":"Scottsdale","addr:housenumber":"11561","addr:postcode":"85256","addr:state":"AZ","addr:street":"East Indian School Road","amenity":"fire_station","name":"Salt River Fire Station 294"}},"geometry":{"type":"Point","coordinates":[-111.8315902,33.494654]}},{"type":"Feature","properties":{"id":"osm-node-7520537260","osm_type":"node","osm_id":7520537260,"category":"police","name":"Allied Universal","operator":null,"ref":null,"tags":{"amenity":"police","name":"Allied Universal"}},"geometry":{"type":"Point","coordinates":[-111.8533848,33.392339]}},{"type":"Feature","properties":{"id":"osm-node-7730120773","osm_type":"node","osm_id":7730120773,"category":"police","name":"Campus Safety Office","operator":null,"ref":null,"tags":{"amenity":"police","name":"Campus Safety Office"}},"geometry":{"type":"Point","coordinates":[-112.09043,33.4821267]}},{"type":"Feature","properties":{"id":"osm-node-7990301996","osm_type":"node","osm_id":7990301996,"category":"police","name":"Tempe Police Apache Substation","operator":null,"ref":null,"tags":{"addr:city":"Tempe","addr:housenumber":"1855","addr:postcode":"85281","addr:state":"AZ","addr:street":"East Apache Boulevard","amenity":"police","name":"Tempe Police Apache Substation"}},"geometry":{"type":"Point","coordinates":[-111.9055376,33.4141756]}},{"type":"Feature","properties":{"id":"osm-node-7990316857","osm_type":"node","osm_id":7990316857,"category":"police","name":"Tempe Police Hardy substation","operator":"City Of Tempe","ref":null,"tags":{"addr:city":"Tempe","addr:housenumber":"8201","addr:postcode":"85283","addr:state":"AZ","addr:street":"South Hardy Drive","amenity":"police","name":"Tempe Police Hardy substation","operator":"City Of Tempe"}},"geometry":{"type":"Point","coordinates":[-111.9535297,33.3410901]}},{"type":"Feature","properties":{"id":"osm-node-8630497756","osm_type":"node","osm_id":8630497756,"category":"police","name":null,"operator":null,"ref":null,"tags":{"amenity":"police"}},"geometry":{"type":"Point","coordinates":[-112.0313916,33.3829429]}},{"type":"Feature","properties":{"id":"osm-node-9166231754","osm_type":"node","osm_id":9166231754,"category":"police","name":"Public Safety","operator":null,"ref":null,"tags":{"amenity":"police","name":"Public Safety","name:signed":"College Police"}},"geometry":{"type":"Point","coordinates":[-111.8728415,33.3889122]}},{"type":"Feature","properties":{"id":"osm-node-9421377174","osm_type":"node","osm_id":9421377174,"category":"police","name":"Chandler Police Department at Desert Breeze","operator":"Chandler Police Department","ref":null,"tags":{"addr:city":"Chandler","addr:housenumber":"251","addr:postcode":"85226","addr:state":"AZ","addr:street":"North Desert Breeze Boulevard West","amenity":"police","name":"Chandler Police Department at Desert Breeze","operator":"Chandler Police Department","phone":"+1-480-782-4800","website":"http://chandlerpd.com/","wheelchair":"yes"}},"geometry":{"type":"Point","coordinates":[-111.9193262,33.3070215]}},{"type":"Feature","properties":{"id":"osm-node-9421377177","osm_type":"node","osm_id":9421377177,"category":"police","name":"Chandler Fire Station #289","operator":null,"ref":null,"tags":{"addr:city":"Chandler","addr:housenumber":"211","addr:postcode":"85226","addr:state":"AZ","addr:street":"North Desert Breeze Boulevard West","amenity":"fire_station","name":"Chandler Fire Station #289"}},"geometry":{"type":"Point","coordinates":[-111.919376,33.3064173]}},{"type":"Feature","properties":{"id":"osm-node-10692273902","osm_type":"node","osm_id":10692273902,"category":"police","name":"Phoenix FIre Station 72","operator":"City of Phoenix Fire Department","ref":null,"tags":{"addr:city":"Cave Creek","addr:housenumber":"33027","addr:postcode":"85331","addr:state":"AZ","addr:street":"North Cave Creek Road","amenity":"fire_station","name":"Phoenix FIre Station 72","operator":"City of Phoenix Fire Department"}},"geometry":{"type":"Point","coordinates":[-111.9715421,33.7851001]}},{"type":"Feature","properties":{"id":"osm-node-11263509836","osm_type":"node","osm_id":11263509836,"category":"police","name":"Gila River Indian Tribal Police","operator":null,"ref":null,"tags":{"addr:city":"Laveen","addr:housenumber":"5356","addr:postcode":"85339","addr:state":"AZ","addr:street":"West Pecos Road","amenity":"police","name":"Gila River Indian Tribal Police"}},"geometry":{"type":"Point","coordinates":[-112.1725481,33.2908091]}},{"type":"Feature","properties":{"id":"osm-node-11585768213","osm_type":"node","osm_id":11585768213,"category":"police","name":"Phoenix Police Department Code Enforcement Unit","operator":null,"ref":null,"tags":{"amenity":"police","name":"Phoenix Police Department Code Enforcement Unit"}},"geometry":{"type":"Point","coordinates":[-112.0437233,33.4407915]}},{"type":"Feature","properties":{"id":"osm-node-11592270908","osm_type":"node","osm_id":11592270908,"category":"police","name":"Phoenix Police Airport Bureau","operator":null,"ref":null,"tags":{"amenity":"police","name":"Phoenix Police Airport Bureau"}},"geometry":{"type":"Point","coordinates":[-112.0192848,33.4378112]}},{"type":"Feature","properties":{"id":"osm-node-11815864198","osm_type":"node","osm_id":11815864198,"category":"police","name":"Fire Station 614","operator":"Scottsdale Fire Department","ref":null,"tags":{"addr:city":"Scottsdale","addr:housenumber":"27777","addr:state":"AZ","addr:street":"North Alma School Parkway","amenity":"fire_station","name":"Fire Station 614","operator":"Scottsdale Fire Department"}},"geometry":{"type":"Point","coordinates":[-111.8449886,33.7372281]}},{"type":"Feature","properties":{"id":"osm-node-11815864199","osm_type":"node","osm_id":11815864199,"category":"police","name":"Fire Station 613","operator":"Scottsdale Fire Department","ref":null,"tags":{"addr:city":"Scottsdale","addr:housenumber":"26380","addr:postcode":"85255","addr:state":"AZ","addr:street":"North Hayden Road","amenity":"fire_station","name":"Fire Station 613","operator":"Scottsdale Fire Department"}},"geometry":{"type":"Point","coordinates":[-111.9092693,33.7251367]}},{"type":"Feature","properties":{"id":"osm-node-11815864200","osm_type":"node","osm_id":11815864200,"category":"police","name":"Fire Station 611","operator":"Scottsdale Fire Department","ref":null,"tags":{"addr:city":"Scottsdale","addr:housenumber":"20355","addr:postcode":"85255","addr:state":"AZ","addr:street":"North Pima Road","amenity":"fire_station","name":"Fire Station 611","operator":"Scottsdale Fire Department"}},"geometry":{"type":"Point","coordinates":[-111.889691,33.6718385]}},{"type":"Feature","properties":{"id":"osm-node-11815864201","osm_type":"node","osm_id":11815864201,"category":"police","name":"Fire Station 610","operator":"Scottsdale Fire Department","ref":null,"tags":{"addr:city":"Scottsdale","addr:housenumber":"16701","addr:postcode":"85260","addr:state":"AZ","addr:street":"North 100th Street","amenity":"fire_station","name":"Fire Station 610","operator":"Scottsdale Fire Department"}},"geometry":{"type":"Point","coordinates":[-111.8651513,33.6384762]}},{"type":"Feature","properties":{"id":"osm-node-11815864202","osm_type":"node","osm_id":11815864202,"category":"police","name":"Fire Station 609","operator":"Scottsdale Fire Department","ref":null,"tags":{"addr:city":"Scottsdale","addr:housenumber":"14970","addr:postcode":"85260","addr:state":"AZ","addr:street":"North 78th Way","amenity":"fire_station","name":"Fire Station 609","operator":"Scottsdale Fire Department"}},"geometry":{"type":"Point","coordinates":[-111.9097811,33.6217335]}},{"type":"Feature","properties":{"id":"osm-node-11999313768","osm_type":"node","osm_id":11999313768,"category":"police","name":"Goodyear Fire Station 182","operator":"City Of Goodyear","ref":null,"tags":{"addr:city":"Goodyear","addr:housenumber":"10701","addr:postcode":"85338","addr:state":"AZ","addr:street":"South Estrella Parkway","amenity":"fire_station","gnis:feature_id":"2672510","name":"Goodyear Fire Station 182","operator":"City Of Goodyear","phone":"+1-623-932-2300","start_date":"2003","website":"https://www.goodyearaz.gov/Home/Components/FacilityDirectory/FacilityDirectory/4/50"}},"geometry":{"type":"Point","coordinates":[-112.4271552,33.3499866]}},{"type":"Feature","properties":{"id":"osm-node-12090965516","osm_type":"node","osm_id":12090965516,"category":"police","name":"Estrella Mountain Public Safety Facility","operator":"City Of Goodyear","ref":null,"tags":{"addr:city":"Goodyear","addr:housenumber":"10701","addr:postcode":"85338","addr:state":"AZ","addr:street":"South Estrella Parkway","amenity":"police","name":"Estrella Mountain Public Safety Facility","operator":"City Of Goodyear","start_date":"2003"}},"geometry":{"type":"Point","coordinates":[-112.427562,33.3499147]}},{"type":"Feature","properties":{"id":"osm-node-12333987905","osm_type":"node","osm_id":12333987905,"category":"police","name":null,"operator":null,"ref":null,"tags":{"addr:city":"Youngtown","addr:postcode":"85363","addr:state":"AZ","amenity":"police"}},"geometry":{"type":"Point","coordinates":[-112.3018635,33.5946153]}},{"type":"Feature","properties":{"id":"osm-node-12507576633","osm_type":"node","osm_id":12507576633,"category":"police","name":"Maricopa County Sheriff's Office District 2","operator":null,"ref":null,"tags":{"addr:city":"Avondale","addr:housenumber":"695","addr:postcode":"85353","addr:state":"AZ","addr:street":"North 105th Avenue","amenity":"police","gnis:feature_id":"2751648","name":"Maricopa County Sheriff's Office District 2","website":"https://www.mcso.org/Home/Components/FacilityDirectory/FacilityDirectory/1026/135"}},"geometry":{"type":"Point","coordinates":[-112.2841154,33.4531114]}},{"type":"Feature","properties":{"id":"osm-node-12642242586","osm_type":"node","osm_id":12642242586,"category":"police","name":"Maricopa County Sheriff","operator":"government","ref":null,"tags":{"addr:city":"Surprise","addr:housenumber":"13063","addr:postcode":"85378","addr:state":"AZ","addr:street":"West Bell Road","amenity":"police","district":"county","name":"Maricopa County Sheriff","operator":"government","website":"https://www.mcso.org/Home/Components/FacilityDirectory/FacilityDirectory/1028/135"}},"geometry":{"type":"Point","coordinates":[-112.3415879,33.6384121]}}]}