{"type":"FeatureCollection","generated_at":"2026-04-23T00:24:40.860Z","bbox":[-117.9,32.3,-116.8,33.6],"category":"police","feature_count":128,"features":[{"type":"Feature","properties":{"id":"osm-node-358844581","osm_type":"node","osm_id":358844581,"category":"police","name":"Oceanside Fire Station 01","operator":"Oceanside Fire Department","ref":null,"tags":{"addr:city":"Oceanside","addr:housenumber":"401","addr:postcode":"92054","addr:state":"CA","addr:street":"North Freeman Street","amenity":"fire_station","denomination":"baptist","ele":"22","gnis:feature_id":"1868472","name":"Oceanside Fire Station 01","operator":"Oceanside Fire Department"},"collected_at":"2026-04-23T00:25:16.239Z"},"geometry":{"type":"Point","coordinates":[-117.3803054,33.1985847]}},{"type":"Feature","properties":{"id":"osm-node-368167786","osm_type":"node","osm_id":368167786,"category":"police","name":"Bonsall Fire Station","operator":null,"ref":null,"tags":{"amenity":"fire_station","ele":"54","gnis:feature_id":"1868357","name":"Bonsall Fire Station","source":"USGS Geonames"},"collected_at":"2026-04-23T00:25:16.239Z"},"geometry":{"type":"Point","coordinates":[-117.2189235,33.2839228]}},{"type":"Feature","properties":{"id":"osm-node-368167788","osm_type":"node","osm_id":368167788,"category":"police","name":"Fallbrook Fire Station","operator":null,"ref":null,"tags":{"amenity":"fire_station","ele":"214","gnis:feature_id":"1868379","name":"Fallbrook Fire Station","source":"USGS Geonames"},"collected_at":"2026-04-23T00:25:16.239Z"},"geometry":{"type":"Point","coordinates":[-117.2489243,33.3833637]}},{"type":"Feature","properties":{"id":"osm-node-368167790","osm_type":"node","osm_id":368167790,"category":"police","name":"Fallbrook Fire Station Number 2","operator":null,"ref":null,"tags":{"amenity":"fire_station","ele":"213","gnis:feature_id":"1868380","name":"Fallbrook Fire Station Number 2","source":"USGS Geonames"},"collected_at":"2026-04-23T00:25:16.239Z"},"geometry":{"type":"Point","coordinates":[-117.2130898,33.345032]}},{"type":"Feature","properties":{"id":"osm-node-368167794","osm_type":"node","osm_id":368167794,"category":"police","name":"Valley Center Fire Station","operator":null,"ref":null,"tags":{"addr:state":"CA","amenity":"fire_station","ele":"417","gnis:feature_id":"1868934","name":"Valley Center Fire Station","source":"USGS Geonames"},"collected_at":"2026-04-23T00:25:16.239Z"},"geometry":{"type":"Point","coordinates":[-117.0236408,33.2355918]}},{"type":"Feature","properties":{"id":"osm-node-368168174","osm_type":"node","osm_id":368168174,"category":"police","name":"Newport Beach Fire Station 5","operator":null,"ref":null,"tags":{"addr:state":"CA","amenity":"fire_station","ele":"31","gnis:feature_id":"2101236","name":"Newport Beach Fire Station 5","source":"USGS Geonames"},"collected_at":"2026-04-23T00:25:16.239Z"},"geometry":{"type":"Point","coordinates":[-117.8695939,33.5959762]}},{"type":"Feature","properties":{"id":"osm-node-368168858","osm_type":"node","osm_id":368168858,"category":"police","name":"San Diego Fire-Rescue Department Station No. 1","operator":null,"ref":"SD1","tags":{"addr:city":"San Diego","addr:housenumber":"1222","addr:postcode":"92101","addr:state":"CA","addr:street":"1st Avenue","amenity":"fire_station","ele":"17","name":"San Diego Fire-Rescue Department Station No. 1","ref":"SD1"},"collected_at":"2026-04-23T00:25:16.239Z"},"geometry":{"type":"Point","coordinates":[-117.164486,32.7179522]}},{"type":"Feature","properties":{"id":"osm-node-368168859","osm_type":"node","osm_id":368168859,"category":"police","name":"San Diego City Fire Station 10","operator":null,"ref":"SD10","tags":{"addr:state":"CA","amenity":"fire_station","ele":"144","gnis:feature_id":"2456354","name":"San Diego City Fire Station 10","ref":"SD10","source":"USGS Geonames"},"collected_at":"2026-04-23T00:25:16.239Z"},"geometry":{"type":"Point","coordinates":[-117.0638456,32.7608509]}},{"type":"Feature","properties":{"id":"osm-node-368168863","osm_type":"node","osm_id":368168863,"category":"police","name":"San Diego City Fire Station 14","operator":null,"ref":"SD14","tags":{"addr:state":"CA","amenity":"fire_station","ele":"108","gnis:feature_id":"2456358","name":"San Diego City Fire Station 14","ref":"SD14","source":"USGS Geonames"},"collected_at":"2026-04-23T00:25:16.239Z"},"geometry":{"type":"Point","coordinates":[-117.124898,32.7505532]}},{"type":"Feature","properties":{"id":"osm-node-368168864","osm_type":"node","osm_id":368168864,"category":"police","name":"San Diego City Fire Station #11","operator":null,"ref":"SD11","tags":{"addr:city":"San Diego","addr:state":"CA","amenity":"fire_station","ele":"58","name":"San Diego City Fire Station #11","ref":"SD11"},"collected_at":"2026-04-23T00:25:16.239Z"},"geometry":{"type":"Point","coordinates":[-117.139967,32.715534]}},{"type":"Feature","properties":{"id":"osm-node-368168865","osm_type":"node","osm_id":368168865,"category":"police","name":"San Diego City Fire Station 12","operator":null,"ref":"SD12","tags":{"addr:state":"CA","amenity":"fire_station","ele":"52","gnis:feature_id":"2456356","name":"San Diego City Fire Station 12","ref":"SD12","source":"USGS Geonames"},"collected_at":"2026-04-23T00:25:16.239Z"},"geometry":{"type":"Point","coordinates":[-117.087852,32.7044035]}},{"type":"Feature","properties":{"id":"osm-node-368168871","osm_type":"node","osm_id":368168871,"category":"police","name":"San Diego City Fire Station 23","operator":null,"ref":null,"tags":{"addr:state":"CA","amenity":"fire_station","ele":"110","gnis:feature_id":"2456365","name":"San Diego City Fire Station 23","source":"USGS Geonames"},"collected_at":"2026-04-23T00:25:16.239Z"},"geometry":{"type":"Point","coordinates":[-117.1715868,32.7829649]}},{"type":"Feature","properties":{"id":"osm-node-368168874","osm_type":"node","osm_id":368168874,"category":"police","name":"San Diego City Fire Station 21","operator":null,"ref":null,"tags":{"amenity":"fire_station","check_date":"2024-07-27","ele":"5","gnis:feature_id":"2456363","name":"San Diego City Fire Station 21","source":"USGS Geonames"},"collected_at":"2026-04-23T00:25:16.239Z"},"geometry":{"type":"Point","coordinates":[-117.255362,32.794852]}},{"type":"Feature","properties":{"id":"osm-node-368168892","osm_type":"node","osm_id":368168892,"category":"police","name":"San Diego City Fire Station 8","operator":null,"ref":null,"tags":{"addr:state":"CA","amenity":"fire_station","ele":"83","gnis:feature_id":"2456383","name":"San Diego City Fire Station 8","source":"USGS Geonames"},"collected_at":"2026-04-23T00:25:16.239Z"},"geometry":{"type":"Point","coordinates":[-117.171633,32.7494883]}},{"type":"Feature","properties":{"id":"osm-node-368168927","osm_type":"node","osm_id":368168927,"category":"police","name":"San Diego City Fire Station 26","operator":null,"ref":null,"tags":{"addr:state":"CA","amenity":"fire_station","ele":"83","gnis:feature_id":"2456368","name":"San Diego City Fire Station 26","source":"USGS Geonames"},"collected_at":"2026-04-23T00:25:16.239Z"},"geometry":{"type":"Point","coordinates":[-117.0799029,32.7354113]}},{"type":"Feature","properties":{"id":"osm-node-368168938","osm_type":"node","osm_id":368168938,"category":"police","name":"San Diego City Fire Station 25","operator":null,"ref":null,"tags":{"amenity":"fire_station","ele":"7","gnis:feature_id":"2456367","name":"San Diego City Fire Station 25","source":"USGS Geonames"},"collected_at":"2026-04-23T00:25:16.239Z"},"geometry":{"type":"Point","coordinates":[-117.2065266,32.781827]}},{"type":"Feature","properties":{"id":"osm-node-368168939","osm_type":"node","osm_id":368168939,"category":"police","name":"San Diego City Fire Station 29","operator":"City of San Diego","ref":null,"tags":{"addr:city":"San Ysidro","addr:housenumber":"198","addr:postcode":"92173","addr:state":"CA","addr:street":"West San Ysidro Boulevard","amenity":"fire_station","ele":"16","gnis:feature_id":"2456370","name":"San Diego City Fire Station 29","operator":"City of San Diego","source":"USGS Geonames","website":"https://www.sandiego.gov/fire/about/firestations/sta29"},"collected_at":"2026-04-23T00:25:16.239Z"},"geometry":{"type":"Point","coordinates":[-117.0474425,32.5533494]}},{"type":"Feature","properties":{"id":"osm-node-368168940","osm_type":"node","osm_id":368168940,"category":"police","name":"San Diego City Fire Station 27","operator":null,"ref":null,"tags":{"addr:state":"CA","amenity":"fire_station","ele":"109","gnis:feature_id":"2456369","name":"San Diego City Fire Station 27","source":"USGS Geonames"},"collected_at":"2026-04-23T00:25:16.239Z"},"geometry":{"type":"Point","coordinates":[-117.201665,32.833854]}},{"type":"Feature","properties":{"id":"osm-node-368168941","osm_type":"node","osm_id":368168941,"category":"police","name":"San Diego City Fire Station 32","operator":null,"ref":null,"tags":{"addr:state":"CA","amenity":"fire_station","ele":"147","gnis:feature_id":"2456372","name":"San Diego City Fire Station 32","source":"USGS Geonames"},"collected_at":"2026-04-23T00:25:16.239Z"},"geometry":{"type":"Point","coordinates":[-117.0370322,32.6921197]}},{"type":"Feature","properties":{"id":"osm-node-368168942","osm_type":"node","osm_id":368168942,"category":"police","name":"San Diego City Fire Station 31","operator":"City of San Diego","ref":null,"tags":{"addr:state":"CA","amenity":"fire_station","check_date":"2023-10-07","ele":"130","gnis:feature_id":"2456371","name":"San Diego City Fire Station 31","operator":"City of San Diego","source":"USGS Geonames"},"collected_at":"2026-04-23T00:25:16.239Z"},"geometry":{"type":"Point","coordinates":[-117.0664432,32.7927623]}},{"type":"Feature","properties":{"id":"osm-node-368168943","osm_type":"node","osm_id":368168943,"category":"police","name":"San Diego City Fire Station 34","operator":null,"ref":null,"tags":{"amenity":"fire_station","ele":"196","gnis:feature_id":"2456374","name":"San Diego City Fire Station 34","source":"USGS Geonames"},"collected_at":"2026-04-23T00:25:16.239Z"},"geometry":{"type":"Point","coordinates":[-117.0252004,32.8025726]}},{"type":"Feature","properties":{"id":"osm-node-368168946","osm_type":"node","osm_id":368168946,"category":"police","name":"San Diego City Fire Station 36","operator":null,"ref":null,"tags":{"addr:state":"CA","amenity":"fire_station","ele":"113","gnis:feature_id":"2456375","name":"San Diego City Fire Station 36","source":"USGS Geonames"},"collected_at":"2026-04-23T00:25:16.239Z"},"geometry":{"type":"Point","coordinates":[-117.1745199,32.822353]}},{"type":"Feature","properties":{"id":"osm-node-368168948","osm_type":"node","osm_id":368168948,"category":"police","name":"San Diego City Fire Station 40","operator":null,"ref":null,"tags":{"addr:state":"CA","amenity":"fire_station","ele":"185","gnis:feature_id":"2456378","name":"San Diego City Fire Station 40","source":"USGS Geonames"},"collected_at":"2026-04-23T00:25:16.239Z"},"geometry":{"type":"Point","coordinates":[-117.122276,32.95962]}},{"type":"Feature","properties":{"id":"osm-node-368168960","osm_type":"node","osm_id":368168960,"category":"police","name":"San Diego City Fire Station 39","operator":null,"ref":null,"tags":{"addr:state":"CA","amenity":"fire_station","ele":"126","gnis:feature_id":"2456377","name":"San Diego City Fire Station 39","source":"USGS Geonames"},"collected_at":"2026-04-23T00:25:16.239Z"},"geometry":{"type":"Point","coordinates":[-117.0985861,32.8205797]}},{"type":"Feature","properties":{"id":"osm-node-368168961","osm_type":"node","osm_id":368168961,"category":"police","name":"San Diego City Fire Station 5","operator":null,"ref":null,"tags":{"addr:state":"CA","amenity":"fire_station","ele":"89","gnis:feature_id":"2456380","name":"San Diego City Fire Station 5","source":"USGS Geonames"},"collected_at":"2026-04-23T00:25:16.239Z"},"geometry":{"type":"Point","coordinates":[-117.156537,32.748683]}},{"type":"Feature","properties":{"id":"osm-node-446675585","osm_type":"node","osm_id":446675585,"category":"police","name":null,"operator":null,"ref":null,"tags":{"amenity":"police"},"collected_at":"2026-04-23T00:25:16.239Z"},"geometry":{"type":"Point","coordinates":[-117.2361898,32.880015]}},{"type":"Feature","properties":{"id":"osm-node-549319754","osm_type":"node","osm_id":549319754,"category":"police","name":"Rancho Santa Fe Fire District Station 2 & Training Facility","operator":null,"ref":null,"tags":{"amenity":"fire_station","name":"Rancho Santa Fe Fire District Station 2 & Training Facility"},"collected_at":"2026-04-23T00:25:16.239Z"},"geometry":{"type":"Point","coordinates":[-117.1229359,33.0224878]}},{"type":"Feature","properties":{"id":"osm-node-549319759","osm_type":"node","osm_id":549319759,"category":"police","name":"San Diego County Sheriff's Department 4S Ranch Substation","operator":null,"ref":null,"tags":{"amenity":"police","check_date":"2024-08-26","name":"San Diego County Sheriff's Department 4S Ranch Substation"},"collected_at":"2026-04-23T00:25:16.239Z"},"geometry":{"type":"Point","coordinates":[-117.1190993,33.0215595]}},{"type":"Feature","properties":{"id":"osm-node-596153364","osm_type":"node","osm_id":596153364,"category":"police","name":"Miller Station 15","operator":"Deer Springs FPD/CAL FIRE","ref":null,"tags":{"addr:city":"Escondido","addr:housenumber":"9127","addr:postcode":"92026","addr:state":"CA","addr:street":"West Lilac Road","amenity":"fire_station","name":"Miller Station 15","operator":"Deer Springs FPD/CAL FIRE","phone":"+1 760 728 8532","source":"SanGIS Addresses Public Domain (http://www.sangis.org/);bing_imagery_0.25m_201005;survey;image","source_ref":"AM909_DSCX6835"},"collected_at":"2026-04-23T00:25:16.239Z"},"geometry":{"type":"Point","coordinates":[-117.136364,33.299306]}},{"type":"Feature","properties":{"id":"osm-node-596761270","osm_type":"node","osm_id":596761270,"category":"police","name":"Chula Vista Fire Department Station 7","operator":null,"ref":null,"tags":{"addr:country":"US","addr:housenumber":"1640","addr:street":"Santa Venetia Street","amenity":"fire_station","name":"Chula Vista Fire Department Station 7","source":"SanGIS Addresses Public Domain (http://www.sangis.org/)"},"collected_at":"2026-04-23T00:25:16.239Z"},"geometry":{"type":"Point","coordinates":[-116.984991,32.620942]}},{"type":"Feature","properties":{"id":"osm-node-596809364","osm_type":"node","osm_id":596809364,"category":"police","name":null,"operator":null,"ref":null,"tags":{"addr:city":"Fallbrook","addr:country":"US","addr:housenumber":"2309","addr:postcode":"92028","addr:street":"Rainbow Valley Boulevard","amenity":"fire_station","source":"bing_imagery_0.25m_201005;survey;image;SanGIS","source_ref":"AM909_DSCX3140"},"collected_at":"2026-04-23T00:25:16.239Z"},"geometry":{"type":"Point","coordinates":[-117.1472587,33.4142168]}},{"type":"Feature","properties":{"id":"osm-node-597157035","osm_type":"node","osm_id":597157035,"category":"police","name":"Cal Fire Station 73","operator":null,"ref":null,"tags":{"addr:city":"Valley Center","addr:country":"US","addr:housenumber":"28234","addr:postcode":"92082","addr:street":"Lilac Road","amenity":"fire_station","name":"Cal Fire Station 73","source":"SanGIS Addresses Public Domain (http://www.sangis.org/)"},"collected_at":"2026-04-23T00:25:16.239Z"},"geometry":{"type":"Point","coordinates":[-117.0382655,33.2218112]}},{"type":"Feature","properties":{"id":"osm-node-607607158","osm_type":"node","osm_id":607607158,"category":"police","name":"San Diego Police Department Northeastern Division","operator":null,"ref":null,"tags":{"addr:housenumber":"13396","addr:street":"Salmon River Road","amenity":"police","name":"San Diego Police Department Northeastern Division"},"collected_at":"2026-04-23T00:25:16.239Z"},"geometry":{"type":"Point","coordinates":[-117.1229071,32.9592159]}},{"type":"Feature","properties":{"id":"osm-node-619046385","osm_type":"node","osm_id":619046385,"category":"police","name":"Encinitas FS #5","operator":null,"ref":null,"tags":{"amenity":"fire_station","name":"Encinitas FS #5"},"collected_at":"2026-04-23T00:25:16.239Z"},"geometry":{"type":"Point","coordinates":[-117.2686012,33.0446818]}},{"type":"Feature","properties":{"id":"osm-node-619047096","osm_type":"node","osm_id":619047096,"category":"police","name":"Encinitas FS #2","operator":null,"ref":null,"tags":{"amenity":"fire_station","name":"Encinitas FS #2"},"collected_at":"2026-04-23T00:25:16.239Z"},"geometry":{"type":"Point","coordinates":[-117.2764471,33.0267092]}},{"type":"Feature","properties":{"id":"osm-node-619413672","osm_type":"node","osm_id":619413672,"category":"police","name":"Encinitas FS #3","operator":null,"ref":null,"tags":{"amenity":"fire_station","name":"Encinitas FS #3"},"collected_at":"2026-04-23T00:25:16.239Z"},"geometry":{"type":"Point","coordinates":[-117.2934496,33.0636735]}},{"type":"Feature","properties":{"id":"osm-node-624987910","osm_type":"node","osm_id":624987910,"category":"police","name":"Lakeside Fire Station 3","operator":null,"ref":null,"tags":{"amenity":"fire_station","name":"Lakeside Fire Station 3"},"collected_at":"2026-04-23T00:25:16.239Z"},"geometry":{"type":"Point","coordinates":[-116.88442,32.8442586]}},{"type":"Feature","properties":{"id":"osm-node-664383357","osm_type":"node","osm_id":664383357,"category":"police","name":null,"operator":null,"ref":null,"tags":{"amenity":"police"},"collected_at":"2026-04-23T00:25:16.239Z"},"geometry":{"type":"Point","coordinates":[-117.2156456,32.8768829]}},{"type":"Feature","properties":{"id":"osm-node-725132332","osm_type":"node","osm_id":725132332,"category":"police","name":"Border Patrol Station","operator":"United States Border Patrol","ref":null,"tags":{"addr:city":"San Onofre","addr:postcode":"92055","addr:state":"CA","addr:street":"San Diego Freeway","agency":"US Customs and Border Protection","amenity":"police","name":"Border Patrol Station","opening_hours":"24/7","operator":"United States Border Patrol","source":"yahoo_imagery;survey;image","source_ref":"AM909_DSCU2652"},"collected_at":"2026-04-23T00:25:16.239Z"},"geometry":{"type":"Point","coordinates":[-117.526429,33.3538691]}},{"type":"Feature","properties":{"id":"osm-node-768255372","osm_type":"node","osm_id":768255372,"category":"police","name":"Federal Fire Station 13","operator":null,"ref":null,"tags":{"amenity":"fire_station","name":"Federal Fire Station 13"},"collected_at":"2026-04-23T00:25:16.239Z"},"geometry":{"type":"Point","coordinates":[-117.2371782,32.6835156]}},{"type":"Feature","properties":{"id":"osm-node-797412592","osm_type":"node","osm_id":797412592,"category":"police","name":"San Marcos Station 2","operator":null,"ref":null,"tags":{"amenity":"fire_station","name":"San Marcos Station 2"},"collected_at":"2026-04-23T00:25:16.239Z"},"geometry":{"type":"Point","coordinates":[-117.2180317,33.1232039]}},{"type":"Feature","properties":{"id":"osm-node-945520451","osm_type":"node","osm_id":945520451,"category":"police","name":"Gaming Commission","operator":"Pechanga Resort and Casino","ref":null,"tags":{"amenity":"police","name":"Gaming Commission","operator":"Pechanga Resort and Casino"},"collected_at":"2026-04-23T00:25:16.239Z"},"geometry":{"type":"Point","coordinates":[-117.1066432,33.4571543]}},{"type":"Feature","properties":{"id":"osm-node-967647129","osm_type":"node","osm_id":967647129,"category":"police","name":"Vista Fire Department","operator":null,"ref":null,"tags":{"amenity":"fire_station","name":"Vista Fire Department"},"collected_at":"2026-04-23T00:25:16.239Z"},"geometry":{"type":"Point","coordinates":[-117.2421069,33.1551582]}},{"type":"Feature","properties":{"id":"osm-node-968108242","osm_type":"node","osm_id":968108242,"category":"police","name":"Vista Fire Dept.","operator":null,"ref":null,"tags":{"amenity":"fire_station","name":"Vista Fire Dept."},"collected_at":"2026-04-23T00:25:16.239Z"},"geometry":{"type":"Point","coordinates":[-117.2360785,33.2063723]}},{"type":"Feature","properties":{"id":"osm-node-969639215","osm_type":"node","osm_id":969639215,"category":"police","name":"Vista Detention Facility","operator":null,"ref":null,"tags":{"amenity":"police","name":"Vista Detention Facility"},"collected_at":"2026-04-23T00:25:16.239Z"},"geometry":{"type":"Point","coordinates":[-117.2567688,33.1916972]}},{"type":"Feature","properties":{"id":"osm-node-971128482","osm_type":"node","osm_id":971128482,"category":"police","name":null,"operator":null,"ref":null,"tags":{"amenity":"fire_station"},"collected_at":"2026-04-23T00:25:16.239Z"},"geometry":{"type":"Point","coordinates":[-117.4247496,33.3283748]}},{"type":"Feature","properties":{"id":"osm-node-971128783","osm_type":"node","osm_id":971128783,"category":"police","name":null,"operator":null,"ref":null,"tags":{"amenity":"fire_station"},"collected_at":"2026-04-23T00:25:16.239Z"},"geometry":{"type":"Point","coordinates":[-117.3422268,33.3056625]}},{"type":"Feature","properties":{"id":"osm-node-971128784","osm_type":"node","osm_id":971128784,"category":"police","name":null,"operator":null,"ref":null,"tags":{"amenity":"fire_station"},"collected_at":"2026-04-23T00:25:16.239Z"},"geometry":{"type":"Point","coordinates":[-117.3272896,33.3297067]}},{"type":"Feature","properties":{"id":"osm-node-978164500","osm_type":"node","osm_id":978164500,"category":"police","name":"Vista Fire Dept.","operator":null,"ref":null,"tags":{"amenity":"fire_station","name":"Vista Fire Dept."},"collected_at":"2026-04-23T00:25:16.239Z"},"geometry":{"type":"Point","coordinates":[-117.2267701,33.2294148]}},{"type":"Feature","properties":{"id":"osm-node-981622526","osm_type":"node","osm_id":981622526,"category":"police","name":"Sheriff Substation","operator":null,"ref":null,"tags":{"amenity":"police","name":"Sheriff Substation"},"collected_at":"2026-04-23T00:25:16.239Z"},"geometry":{"type":"Point","coordinates":[-117.2734483,33.2000712]}},{"type":"Feature","properties":{"id":"osm-node-983021358","osm_type":"node","osm_id":983021358,"category":"police","name":"Vista Fire Dept.","operator":null,"ref":null,"tags":{"amenity":"fire_station","name":"Vista Fire Dept."},"collected_at":"2026-04-23T00:25:16.239Z"},"geometry":{"type":"Point","coordinates":[-117.2552025,33.1973895]}},{"type":"Feature","properties":{"id":"osm-node-1040474976","osm_type":"node","osm_id":1040474976,"category":"police","name":null,"operator":null,"ref":null,"tags":{"amenity":"police"},"collected_at":"2026-04-23T00:25:16.239Z"},"geometry":{"type":"Point","coordinates":[-116.9788559,32.5297321]}},{"type":"Feature","properties":{"id":"osm-node-1046517729","osm_type":"node","osm_id":1046517729,"category":"police","name":null,"operator":null,"ref":null,"tags":{"amenity":"police"},"collected_at":"2026-04-23T00:25:16.239Z"},"geometry":{"type":"Point","coordinates":[-117.692815,33.4580956]}},{"type":"Feature","properties":{"id":"osm-node-1102385440","osm_type":"node","osm_id":1102385440,"category":"police","name":"Fire Station #3","operator":null,"ref":null,"tags":{"addr:housenumber":"1808","addr:street":"North Nutmeg Street","amenity":"fire_station","name":"Fire Station #3"},"collected_at":"2026-04-23T00:25:16.239Z"},"geometry":{"type":"Point","coordinates":[-117.1062877,33.1493919]}},{"type":"Feature","properties":{"id":"osm-node-1102385684","osm_type":"node","osm_id":1102385684,"category":"police","name":"Fire Station #6","operator":null,"ref":null,"tags":{"addr:housenumber":"1735","addr:street":"South del Dios Road","amenity":"fire_station","name":"Fire Station #6"},"collected_at":"2026-04-23T00:25:16.239Z"},"geometry":{"type":"Point","coordinates":[-117.1021854,33.1050047]}},{"type":"Feature","properties":{"id":"osm-node-1250226492","osm_type":"node","osm_id":1250226492,"category":"police","name":"North County Fire Station #3","operator":null,"ref":null,"tags":{"amenity":"fire_station","name":"North County Fire Station #3"},"collected_at":"2026-04-23T00:25:16.239Z"},"geometry":{"type":"Point","coordinates":[-117.2501334,33.3166006]}},{"type":"Feature","properties":{"id":"osm-node-1314261369","osm_type":"node","osm_id":1314261369,"category":"police","name":"San Miguel Fire Station #23","operator":null,"ref":null,"tags":{"amenity":"fire_station","name":"San Miguel Fire Station #23"},"collected_at":"2026-04-23T00:25:16.239Z"},"geometry":{"type":"Point","coordinates":[-116.9030439,32.7880303]}},{"type":"Feature","properties":{"id":"osm-node-1337466812","osm_type":"node","osm_id":1337466812,"category":"police","name":null,"operator":null,"ref":null,"tags":{"amenity":"fire_station"},"collected_at":"2026-04-23T00:25:16.239Z"},"geometry":{"type":"Point","coordinates":[-117.1220584,32.7627392]}},{"type":"Feature","properties":{"id":"osm-node-1363137037","osm_type":"node","osm_id":1363137037,"category":"police","name":"Station 35","operator":"San Diego Fire Department","ref":null,"tags":{"amenity":"fire_station","name":"Station 35","operator":"San Diego Fire Department"},"collected_at":"2026-04-23T00:25:16.239Z"},"geometry":{"type":"Point","coordinates":[-117.2151922,32.8769658]}},{"type":"Feature","properties":{"id":"osm-node-1402745715","osm_type":"node","osm_id":1402745715,"category":"police","name":"Palomar College Police","operator":null,"ref":null,"tags":{"amenity":"police","name":"Palomar College Police","source":"survey","source_ref":"vvvexp97"},"collected_at":"2026-04-23T00:25:16.239Z"},"geometry":{"type":"Point","coordinates":[-117.0523484,33.1361015]}},{"type":"Feature","properties":{"id":"osm-node-1641462642","osm_type":"node","osm_id":1641462642,"category":"police","name":"Estacion de Bomberos","operator":null,"ref":null,"tags":{"amenity":"fire_station","name":"Estacion de Bomberos"},"collected_at":"2026-04-23T00:25:16.239Z"},"geometry":{"type":"Point","coordinates":[-116.8213219,32.4582187]}},{"type":"Feature","properties":{"id":"osm-node-1641462664","osm_type":"node","osm_id":1641462664,"category":"police","name":"Delegacion Presa Rural","operator":null,"ref":null,"tags":{"amenity":"police","name":"Delegacion Presa Rural"},"collected_at":"2026-04-23T00:25:16.239Z"},"geometry":{"type":"Point","coordinates":[-116.8210457,32.4582504]}},{"type":"Feature","properties":{"id":"osm-node-1699148198","osm_type":"node","osm_id":1699148198,"category":"police","name":"Riverside County Fire Department Station #73","operator":null,"ref":"RVC73","tags":{"amenity":"fire_station","designation":"Rancho California Fire Station","name":"Riverside County Fire Department Station #73","ref":"RVC73","source":"local_knowledge"},"collected_at":"2026-04-23T00:25:16.239Z"},"geometry":{"type":"Point","coordinates":[-117.1671447,33.5156133]}},{"type":"Feature","properties":{"id":"osm-node-1699161166","osm_type":"node","osm_id":1699161166,"category":"police","name":"Riverside County Fire Department Station #75","operator":null,"ref":"RVC75","tags":{"amenity":"fire_station","designation":"Bear Creek Fire Station","name":"Riverside County Fire Department Station #75","ref":"RVC75","source":"local_knowledge"},"collected_at":"2026-04-23T00:25:16.239Z"},"geometry":{"type":"Point","coordinates":[-117.2642607,33.5652475]}},{"type":"Feature","properties":{"id":"osm-node-1722304859","osm_type":"node","osm_id":1722304859,"category":"police","name":null,"operator":null,"ref":null,"tags":{"amenity":"fire_station"},"collected_at":"2026-04-23T00:25:16.239Z"},"geometry":{"type":"Point","coordinates":[-117.0517249,32.3646832]}},{"type":"Feature","properties":{"id":"osm-node-1770065596","osm_type":"node","osm_id":1770065596,"category":"police","name":"CHP Temecula Office","operator":"California Highway Patrol","ref":null,"tags":{"amenity":"police","designation":"California Highway Patrol","name":"CHP Temecula Office","operator":"California Highway Patrol","operator:short":"CHP","operator:wikidata":"Q2249117"},"collected_at":"2026-04-23T00:25:16.239Z"},"geometry":{"type":"Point","coordinates":[-117.160633,33.5109641]}},{"type":"Feature","properties":{"id":"osm-node-1802473354","osm_type":"node","osm_id":1802473354,"category":"police","name":"Murrieta Fire Department Station #3","operator":null,"ref":"MUR3","tags":{"amenity":"fire_station","designation":"Murrieta Fire Station #3","name":"Murrieta Fire Department Station #3","ref":"MUR3","source":"local_knowledge"},"collected_at":"2026-04-23T00:25:16.239Z"},"geometry":{"type":"Point","coordinates":[-117.16822,33.5555822]}},{"type":"Feature","properties":{"id":"osm-node-1846239503","osm_type":"node","osm_id":1846239503,"category":"police","name":"Murrieta Fire Department Station #5","operator":null,"ref":"MUR5","tags":{"amenity":"fire_station","name":"Murrieta Fire Department Station #5","ref":"MUR5"},"collected_at":"2026-04-23T00:25:16.239Z"},"geometry":{"type":"Point","coordinates":[-117.2473778,33.56354]}},{"type":"Feature","properties":{"id":"osm-node-1875382662","osm_type":"node","osm_id":1875382662,"category":"police","name":null,"operator":null,"ref":null,"tags":{"amenity":"police"},"collected_at":"2026-04-23T00:25:16.239Z"},"geometry":{"type":"Point","coordinates":[-117.0425229,32.4386588]}},{"type":"Feature","properties":{"id":"osm-node-1875382663","osm_type":"node","osm_id":1875382663,"category":"police","name":null,"operator":null,"ref":null,"tags":{"amenity":"fire_station"},"collected_at":"2026-04-23T00:25:16.239Z"},"geometry":{"type":"Point","coordinates":[-117.0425999,32.4384835]}},{"type":"Feature","properties":{"id":"osm-node-1999507156","osm_type":"node","osm_id":1999507156,"category":"police","name":null,"operator":null,"ref":null,"tags":{"amenity":"fire_station"},"collected_at":"2026-04-23T00:25:16.239Z"},"geometry":{"type":"Point","coordinates":[-117.0853903,33.0901928]}},{"type":"Feature","properties":{"id":"osm-node-1999507158","osm_type":"node","osm_id":1999507158,"category":"police","name":null,"operator":null,"ref":null,"tags":{"amenity":"fire_station"},"collected_at":"2026-04-23T00:25:16.239Z"},"geometry":{"type":"Point","coordinates":[-117.0852401,33.090876]}},{"type":"Feature","properties":{"id":"osm-node-2232157601","osm_type":"node","osm_id":2232157601,"category":"police","name":"El Cajon Police","operator":null,"ref":null,"tags":{"addr:city":"El Cajón","addr:city:es":"El Cajón","amenity":"police","name":"El Cajon Police","name:es":"Policía de El Cajón"},"collected_at":"2026-04-23T00:25:16.239Z"},"geometry":{"type":"Point","coordinates":[-116.960469,32.7968721]}},{"type":"Feature","properties":{"id":"osm-node-2616785107","osm_type":"node","osm_id":2616785107,"category":"police","name":"Pala Fire Station","operator":null,"ref":null,"tags":{"addr:city":"Pala","addr:housenumber":"34884","addr:postcode":"92059","addr:state":"CA","addr:street":"Lilac Extension Road","amenity":"fire_station","name":"Pala Fire Station"},"collected_at":"2026-04-23T00:25:16.239Z"},"geometry":{"type":"Point","coordinates":[-117.076622,33.3633743]}},{"type":"Feature","properties":{"id":"osm-node-2636166301","osm_type":"node","osm_id":2636166301,"category":"police","name":"Brig","operator":null,"ref":null,"tags":{"amenity":"police","name":"Brig"},"collected_at":"2026-04-23T00:25:16.239Z"},"geometry":{"type":"Point","coordinates":[-117.3365359,33.3011581]}},{"type":"Feature","properties":{"id":"osm-node-2660068006","osm_type":"node","osm_id":2660068006,"category":"police","name":null,"operator":null,"ref":null,"tags":{"amenity":"fire_station"},"collected_at":"2026-04-23T00:25:16.239Z"},"geometry":{"type":"Point","coordinates":[-116.9456488,32.6457169]}},{"type":"Feature","properties":{"id":"osm-node-2660475368","osm_type":"node","osm_id":2660475368,"category":"police","name":"USD Public Safety","operator":null,"ref":null,"tags":{"amenity":"police","name":"USD Public Safety"},"collected_at":"2026-04-23T00:25:16.239Z"},"geometry":{"type":"Point","coordinates":[-117.1903542,32.7708246]}},{"type":"Feature","properties":{"id":"osm-node-2935947724","osm_type":"node","osm_id":2935947724,"category":"police","name":null,"operator":null,"ref":null,"tags":{"amenity":"fire_station"},"collected_at":"2026-04-23T00:25:16.239Z"},"geometry":{"type":"Point","coordinates":[-117.6708956,33.5556888]}},{"type":"Feature","properties":{"id":"osm-node-3110080929","osm_type":"node","osm_id":3110080929,"category":"police","name":null,"operator":null,"ref":null,"tags":{"amenity":"police"},"collected_at":"2026-04-23T00:25:16.239Z"},"geometry":{"type":"Point","coordinates":[-116.9057503,32.4900253]}},{"type":"Feature","properties":{"id":"osm-node-3110402141","osm_type":"node","osm_id":3110402141,"category":"police","name":"Estación 8","operator":null,"ref":null,"tags":{"amenity":"fire_station","name":"Estación 8"},"collected_at":"2026-04-23T00:25:16.239Z"},"geometry":{"type":"Point","coordinates":[-116.9053821,32.4984916]}},{"type":"Feature","properties":{"id":"osm-node-3205378736","osm_type":"node","osm_id":3205378736,"category":"police","name":null,"operator":null,"ref":null,"tags":{"amenity":"police"},"collected_at":"2026-04-23T00:25:16.239Z"},"geometry":{"type":"Point","coordinates":[-117.0480565,32.3927493]}},{"type":"Feature","properties":{"id":"osm-node-3285113372","osm_type":"node","osm_id":3285113372,"category":"police","name":"San Diego County Sheriff","operator":null,"ref":null,"tags":{"addr:housenumber":"120","addr:street":"Mata Way","amenity":"police","name":"San Diego County Sheriff","source":"SanGIS Addresses Public Domain (http://www.sangis.org/)"},"collected_at":"2026-04-23T00:25:16.239Z"},"geometry":{"type":"Point","coordinates":[-117.1466157,33.1418431]}},{"type":"Feature","properties":{"id":"osm-node-3378423063","osm_type":"node","osm_id":3378423063,"category":"police","name":"San Marcos Fire Station #3","operator":"City of San Marcos Fire Department","ref":null,"tags":{"amenity":"fire_station","name":"San Marcos Fire Station #3","operator":"City of San Marcos Fire Department"},"collected_at":"2026-04-23T00:25:16.239Z"},"geometry":{"type":"Point","coordinates":[-117.1360763,33.1442083]}},{"type":"Feature","properties":{"id":"osm-node-3591556917","osm_type":"node","osm_id":3591556917,"category":"police","name":"Estación 10 - Bomberos","operator":"Bomberos Tijuana","ref":null,"tags":{"addr:city":"Tijuana","addr:postcode":"22235","addr:street":"Avenida Paseo del Pedregal","amenity":"fire_station","name":"Estación 10 - Bomberos","operator":"Bomberos Tijuana","phone":"664 631 8996"},"collected_at":"2026-04-23T00:25:16.239Z"},"geometry":{"type":"Point","coordinates":[-117.112662,32.5213782]}},{"type":"Feature","properties":{"id":"osm-node-3591556919","osm_type":"node","osm_id":3591556919,"category":"police","name":"Delegación Playas","operator":null,"ref":null,"tags":{"amenity":"police","name":"Delegación Playas"},"collected_at":"2026-04-23T00:25:16.239Z"},"geometry":{"type":"Point","coordinates":[-117.1125807,32.5226759]}},{"type":"Feature","properties":{"id":"osm-node-3797395900","osm_type":"node","osm_id":3797395900,"category":"police","name":"Estación Número 4","operator":null,"ref":"4","tags":{"amenity":"fire_station","name":"Estación Número 4","ref":"4","source":"INEGI"},"collected_at":"2026-04-23T00:25:16.239Z"},"geometry":{"type":"Point","coordinates":[-116.9220337,32.5375238]}},{"type":"Feature","properties":{"id":"osm-node-3797398190","osm_type":"node","osm_id":3797398190,"category":"police","name":"Bomberos La Mesa","operator":null,"ref":"2","tags":{"amenity":"fire_station","description":"Bomberos Tijuana Estacion No. 2 La Mesa","name":"Bomberos La Mesa","ref":"2","source":"INEGI"},"collected_at":"2026-04-23T00:25:16.239Z"},"geometry":{"type":"Point","coordinates":[-116.9760995,32.5069768]}},{"type":"Feature","properties":{"id":"osm-node-3815256462","osm_type":"node","osm_id":3815256462,"category":"police","name":"Station Five","operator":"North County Fire Protection District","ref":null,"tags":{"addr:city":"Bonsall","addr:housenumber":"5906","addr:postcode":"92003","addr:street":"Olive Hill Road","amenity":"fire_station","name":"Station Five","operator":"North County Fire Protection District"},"collected_at":"2026-04-23T00:25:16.239Z"},"geometry":{"type":"Point","coordinates":[-117.227334,33.2896839]}},{"type":"Feature","properties":{"id":"osm-node-4069440963","osm_type":"node","osm_id":4069440963,"category":"police","name":"Chula Vista Police Department Headquarters","operator":null,"ref":null,"tags":{"addr:housenumber":"315","addr:street":"Fourth Avenue","amenity":"police","name":"Chula Vista Police Department Headquarters","source":"Bing"},"collected_at":"2026-04-23T00:25:16.239Z"},"geometry":{"type":"Point","coordinates":[-117.0831827,32.639926]}},{"type":"Feature","properties":{"id":"osm-node-4192517037","osm_type":"node","osm_id":4192517037,"category":"police","name":"Laguna Beach Fire Station 3","operator":"Laguna Beach Fire Department","ref":"3","tags":{"addr:city":"Laguna Beach","addr:housenumber":"2900","addr:postcode":"92651","addr:street":"Alta Laguna Boulevard","amenity":"fire_station","name":"Laguna Beach Fire Station 3","operator":"Laguna Beach Fire Department","ref":"3"},"collected_at":"2026-04-23T00:25:16.239Z"},"geometry":{"type":"Point","coordinates":[-117.7534041,33.5453295]}},{"type":"Feature","properties":{"id":"osm-node-4211138392","osm_type":"node","osm_id":4211138392,"category":"police","name":"Delegación La Gloria","operator":null,"ref":null,"tags":{"addr:street":"Blvd. Cuauhtémoc Sur","amenity":"police","name":"Delegación La Gloria"},"collected_at":"2026-04-23T00:25:16.239Z"},"geometry":{"type":"Point","coordinates":[-117.0147351,32.4438039]}},{"type":"Feature","properties":{"id":"osm-node-4212540291","osm_type":"node","osm_id":4212540291,"category":"police","name":"Delegación La Gloria","operator":null,"ref":null,"tags":{"addr:street":"Blvd. Cuauhtémoc Sur","amenity":"police","name":"Delegación La Gloria"},"collected_at":"2026-04-23T00:25:16.239Z"},"geometry":{"type":"Point","coordinates":[-117.0148419,32.4438019]}},{"type":"Feature","properties":{"id":"osm-node-4325891289","osm_type":"node","osm_id":4325891289,"category":"police","name":"Cuartel Municipal de Bomberos","operator":null,"ref":null,"tags":{"addr:street":"Avenida Aldrete","amenity":"fire_station","name":"Cuartel Municipal de Bomberos"},"collected_at":"2026-04-23T00:25:16.239Z"},"geometry":{"type":"Point","coordinates":[-117.035414,32.539288]}},{"type":"Feature","properties":{"id":"osm-node-4548280800","osm_type":"node","osm_id":4548280800,"category":"police","name":"San Diego Harbor Police Headquarters","operator":null,"ref":null,"tags":{"amenity":"police","name":"San Diego Harbor Police Headquarters"},"collected_at":"2026-04-23T00:25:16.239Z"},"geometry":{"type":"Point","coordinates":[-117.194171,32.7286135]}},{"type":"Feature","properties":{"id":"osm-node-4679474091","osm_type":"node","osm_id":4679474091,"category":"police","name":"Distrito Zona Centro","operator":null,"ref":null,"tags":{"addr:city":"tijuana","addr:housenumber":"s/n","addr:postcode":"22000","addr:street":"Avenida G - González Ortega","amenity":"police","name":"Distrito Zona Centro"},"collected_at":"2026-04-23T00:25:16.239Z"},"geometry":{"type":"Point","coordinates":[-117.047776,32.5404805]}},{"type":"Feature","properties":{"id":"osm-node-4689475692","osm_type":"node","osm_id":4689475692,"category":"police","name":"Delegacion la Presa","operator":null,"ref":null,"tags":{"addr:street":"Avenida Aranjuéz","amenity":"police","name":"Delegacion la Presa","name:es":"delegacion villa fontana","opening_hours":"24/7"},"collected_at":"2026-04-23T00:25:16.239Z"},"geometry":{"type":"Point","coordinates":[-116.8664187,32.5045335]}},{"type":"Feature","properties":{"id":"osm-node-4931777854","osm_type":"node","osm_id":4931777854,"category":"police","name":"PGJE","operator":null,"ref":null,"tags":{"amenity":"police","name":"PGJE"},"collected_at":"2026-04-23T00:25:16.239Z"},"geometry":{"type":"Point","coordinates":[-117.0164941,32.5208995]}},{"type":"Feature","properties":{"id":"osm-node-5070131345","osm_type":"node","osm_id":5070131345,"category":"police","name":"Fire Station #7","operator":null,"ref":null,"tags":{"amenity":"fire_station","name":"Fire Station #7"},"collected_at":"2026-04-23T00:25:16.239Z"},"geometry":{"type":"Point","coordinates":[-116.9924507,32.8032519]}},{"type":"Feature","properties":{"id":"osm-node-5093386352","osm_type":"node","osm_id":5093386352,"category":"police","name":"La Mesa Fire Department Station 12","operator":null,"ref":null,"tags":{"amenity":"fire_station","check_date":"2026-03-02","name":"La Mesa Fire Department Station 12"},"collected_at":"2026-04-23T00:25:16.239Z"},"geometry":{"type":"Point","coordinates":[-117.0057112,32.7914698]}},{"type":"Feature","properties":{"id":"osm-node-5115715658","osm_type":"node","osm_id":5115715658,"category":"police","name":"Delegacion los Pinos","operator":null,"ref":null,"tags":{"amenity":"police","name":"Delegacion los Pinos"},"collected_at":"2026-04-23T00:25:16.239Z"},"geometry":{"type":"Point","coordinates":[-116.9096748,32.4478713]}},{"type":"Feature","properties":{"id":"osm-node-5116171397","osm_type":"node","osm_id":5116171397,"category":"police","name":"Delegacion Cerro Colorado","operator":null,"ref":null,"tags":{"amenity":"police","name":"Delegacion Cerro Colorado"},"collected_at":"2026-04-23T00:25:16.239Z"},"geometry":{"type":"Point","coordinates":[-116.9114456,32.4674798]}},{"type":"Feature","properties":{"id":"osm-node-5133921132","osm_type":"node","osm_id":5133921132,"category":"police","name":null,"operator":null,"ref":null,"tags":{"amenity":"fire_station"},"collected_at":"2026-04-23T00:25:16.239Z"},"geometry":{"type":"Point","coordinates":[-117.0240733,32.7661896]}},{"type":"Feature","properties":{"id":"osm-node-5191301800","osm_type":"node","osm_id":5191301800,"category":"police","name":"Policia Municipal","operator":null,"ref":null,"tags":{"addr:city":"tijuana","addr:postcode":"22630","addr:street":"Calle del Arco","amenity":"police","check_date":"2025-11-20","name":"Policia Municipal"},"collected_at":"2026-04-23T00:25:16.240Z"},"geometry":{"type":"Point","coordinates":[-117.0316177,32.4803359]}},{"type":"Feature","properties":{"id":"osm-node-5319245907","osm_type":"node","osm_id":5319245907,"category":"police","name":"Caseta de Viglancia","operator":null,"ref":null,"tags":{"amenity":"police","name":"Caseta de Viglancia"},"collected_at":"2026-04-23T00:25:16.240Z"},"geometry":{"type":"Point","coordinates":[-117.0687533,32.4857464]}},{"type":"Feature","properties":{"id":"osm-node-6165276442","osm_type":"node","osm_id":6165276442,"category":"police","name":"Miramar Fire Station #62","operator":null,"ref":null,"tags":{"amenity":"fire_station","name":"Miramar Fire Station #62"},"collected_at":"2026-04-23T00:25:16.240Z"},"geometry":{"type":"Point","coordinates":[-117.106685,32.8609831]}},{"type":"Feature","properties":{"id":"osm-node-6189296846","osm_type":"node","osm_id":6189296846,"category":"police","name":null,"operator":null,"ref":null,"tags":{"amenity":"fire_station"},"collected_at":"2026-04-23T00:25:16.240Z"},"geometry":{"type":"Point","coordinates":[-116.9800707,32.769842]}},{"type":"Feature","properties":{"id":"osm-node-6312015622","osm_type":"node","osm_id":6312015622,"category":"police","name":"Chula Vista Police Otay Ranch Storefront","operator":null,"ref":null,"tags":{"amenity":"police","name":"Chula Vista Police Otay Ranch Storefront"},"collected_at":"2026-04-23T00:25:16.240Z"},"geometry":{"type":"Point","coordinates":[-116.9691787,32.6238305]}},{"type":"Feature","properties":{"id":"osm-node-6426914119","osm_type":"node","osm_id":6426914119,"category":"police","name":"Ministerio Publico PGJE","operator":null,"ref":null,"tags":{"amenity":"police","name":"Ministerio Publico PGJE"},"collected_at":"2026-04-23T00:25:16.240Z"},"geometry":{"type":"Point","coordinates":[-116.9609245,32.5156928]}},{"type":"Feature","properties":{"id":"osm-node-6453680996","osm_type":"node","osm_id":6453680996,"category":"police","name":null,"operator":null,"ref":null,"tags":{"amenity":"police"},"collected_at":"2026-04-23T00:25:16.240Z"},"geometry":{"type":"Point","coordinates":[-117.0344164,32.66094]}},{"type":"Feature","properties":{"id":"osm-node-6587346854","osm_type":"node","osm_id":6587346854,"category":"police","name":"Rosarito PD - Check Point","operator":null,"ref":null,"tags":{"amenity":"police","name":"Rosarito PD - Check Point"},"collected_at":"2026-04-23T00:25:16.240Z"},"geometry":{"type":"Point","coordinates":[-116.9514131,32.3678171]}},{"type":"Feature","properties":{"id":"osm-node-6846203102","osm_type":"node","osm_id":6846203102,"category":"police","name":"National City Police Community Storefront","operator":null,"ref":null,"tags":{"amenity":"police","level":"0","name":"National City Police Community Storefront"},"collected_at":"2026-04-23T00:25:16.240Z"},"geometry":{"type":"Point","coordinates":[-117.0646238,32.6554207]}},{"type":"Feature","properties":{"id":"osm-node-6916734866","osm_type":"node","osm_id":6916734866,"category":"police","name":null,"operator":null,"ref":null,"tags":{"addr:floor":"G","amenity":"fire_station","check_date":"2022-05-11","level":"0","opening_hours":"24/7","polling_station":"no"},"collected_at":"2026-04-23T00:25:16.240Z"},"geometry":{"type":"Point","coordinates":[-117.1266451,32.6843458]}},{"type":"Feature","properties":{"id":"osm-node-9291587839","osm_type":"node","osm_id":9291587839,"category":"police","name":"Fire Station #10","operator":"CVFD","ref":null,"tags":{"amenity":"fire_station","name":"Fire Station #10","operator":"CVFD"},"collected_at":"2026-04-23T00:25:16.240Z"},"geometry":{"type":"Point","coordinates":[-116.9682768,32.6179148]}},{"type":"Feature","properties":{"id":"osm-node-9469355437","osm_type":"node","osm_id":9469355437,"category":"police","name":"C4 Central","operator":null,"ref":null,"tags":{"amenity":"police","name":"C4 Central"},"collected_at":"2026-04-23T00:25:16.240Z"},"geometry":{"type":"Point","coordinates":[-116.8913464,32.4431095]}},{"type":"Feature","properties":{"id":"osm-node-9469355438","osm_type":"node","osm_id":9469355438,"category":"police","name":"Centro de Vigilancia","operator":null,"ref":null,"tags":{"amenity":"police","name":"Centro de Vigilancia"},"collected_at":"2026-04-23T00:25:16.240Z"},"geometry":{"type":"Point","coordinates":[-116.8901649,32.4426681]}},{"type":"Feature","properties":{"id":"osm-node-9807060023","osm_type":"node","osm_id":9807060023,"category":"police","name":"San Diego County Fire Jamul Station #36","operator":null,"ref":null,"tags":{"amenity":"fire_station","name":"San Diego County Fire Jamul Station #36"},"collected_at":"2026-04-23T00:25:16.240Z"},"geometry":{"type":"Point","coordinates":[-116.8682396,32.7052621]}},{"type":"Feature","properties":{"id":"osm-node-9807513519","osm_type":"node","osm_id":9807513519,"category":"police","name":"San Diego County Fire Harbison Canyon Station #24","operator":null,"ref":null,"tags":{"amenity":"fire_station","name":"San Diego County Fire Harbison Canyon Station #24"},"collected_at":"2026-04-23T00:25:16.240Z"},"geometry":{"type":"Point","coordinates":[-116.8318455,32.8185873]}},{"type":"Feature","properties":{"id":"osm-node-9837021312","osm_type":"node","osm_id":9837021312,"category":"police","name":null,"operator":null,"ref":null,"tags":{"amenity":"fire_station"},"collected_at":"2026-04-23T00:25:16.240Z"},"geometry":{"type":"Point","coordinates":[-117.123794,32.5231559]}},{"type":"Feature","properties":{"id":"osm-node-11406639528","osm_type":"node","osm_id":11406639528,"category":"police","name":"Promenade Mall Police","operator":null,"ref":null,"tags":{"amenity":"police","level":"1","name":"Promenade Mall Police"},"collected_at":"2026-04-23T00:25:16.240Z"},"geometry":{"type":"Point","coordinates":[-117.1531273,33.5252446]}},{"type":"Feature","properties":{"id":"osm-node-11796828000","osm_type":"node","osm_id":11796828000,"category":"police","name":"CAL FIRE Ramona Station 86","operator":null,"ref":null,"tags":{"addr:city":"Ramona","addr:housenumber":"16310","addr:postcode":"92065","addr:state":"CA","addr:street":"Highway 67","amenity":"fire_station","name":"CAL FIRE Ramona Station 86","phone":"+1-760-789-1150"},"collected_at":"2026-04-23T00:25:16.240Z"},"geometry":{"type":"Point","coordinates":[-116.9568953,33.0083801]}},{"type":"Feature","properties":{"id":"osm-node-12077171792","osm_type":"node","osm_id":12077171792,"category":"police","name":"Pacific Beach Lifeguard Station","operator":null,"ref":null,"tags":{"amenity":"fire_station","name":"Pacific Beach Lifeguard Station"},"collected_at":"2026-04-23T00:25:16.240Z"},"geometry":{"type":"Point","coordinates":[-117.2561932,32.7943815]}},{"type":"Feature","properties":{"id":"osm-node-12172088376","osm_type":"node","osm_id":12172088376,"category":"police","name":"California Department of Fish and Wildlife - Southern District","operator":"California Department of Fish and Wildlife","ref":null,"tags":{"addr:city":"San Diego","addr:housenumber":"3883","addr:postcode":"92123","addr:state":"CA","addr:street":"Ruffin Road","amenity":"police","name":"California Department of Fish and Wildlife - Southern District","operator":"California Department of Fish and Wildlife","website":"https://wildlife.ca.gov/Organization/LED#301971026-southern-district"},"collected_at":"2026-04-23T00:25:16.240Z"},"geometry":{"type":"Point","coordinates":[-117.1200564,32.8135714]}},{"type":"Feature","properties":{"id":"osm-node-12467673313","osm_type":"node","osm_id":12467673313,"category":"police","name":"Federal Fire Station 110","operator":null,"ref":null,"tags":{"amenity":"fire_station","name":"Federal Fire Station 110"},"collected_at":"2026-04-23T00:25:16.240Z"},"geometry":{"type":"Point","coordinates":[-117.2472509,32.6990548]}},{"type":"Feature","properties":{"id":"osm-node-12913164281","osm_type":"node","osm_id":12913164281,"category":"police","name":"Laguna Beach Police Department","operator":"government","ref":null,"tags":{"addr:city":"Laguna Beach","addr:housenumber":"505","addr:postcode":"92651","addr:state":"CA","addr:street":"Forest Avenue","amenity":"police","name":"Laguna Beach Police Department","opening_hours":"24/7","operator":"government"},"collected_at":"2026-04-23T00:25:16.240Z"},"geometry":{"type":"Point","coordinates":[-117.7809767,33.5451847]}},{"type":"Feature","properties":{"id":"osm-node-13147564619","osm_type":"node","osm_id":13147564619,"category":"police","name":"Chula Vista Fire Station 11","operator":"City of Chula Vista","ref":null,"tags":{"addr:city":"Chula Vista","addr:housenumber":"2168","addr:postcode":"91913","addr:state":"CA","addr:street":"Avenida Caprise","amenity":"fire_station","name":"Chula Vista Fire Station 11","operator":"City of Chula Vista"},"collected_at":"2026-04-23T00:25:16.240Z"},"geometry":{"type":"Point","coordinates":[-116.9745994,32.6003508]}},{"type":"Feature","properties":{"id":"osm-node-13315731211","osm_type":"node","osm_id":13315731211,"category":"police","name":"Fox Fire Center","operator":"California Department of Forestry and Fire Protection","ref":null,"tags":{"amenity":"fire_station","name":"Fox Fire Center","operator":"California Department of Forestry and Fire Protection","operator:short":"Cal Fire","operator:wikidata":"Q5020422"},"collected_at":"2026-04-23T00:25:16.240Z"},"geometry":{"type":"Point","coordinates":[-116.8093063,33.2635913]}},{"type":"Feature","properties":{"id":"osm-node-13337373609","osm_type":"node","osm_id":13337373609,"category":"police","name":"SDPD Multi-Cultural Community Relations","operator":"San Diego Police Department","ref":null,"tags":{"amenity":"police","name":"SDPD Multi-Cultural Community Relations","operator":"San Diego Police Department"},"collected_at":"2026-04-23T00:25:16.240Z"},"geometry":{"type":"Point","coordinates":[-117.0809152,32.7493286]}},{"type":"Feature","properties":{"id":"osm-relation-19861698","osm_type":"relation","osm_id":19861698,"category":"police","name":"Pauma Reservation Police Department","operator":null,"ref":null,"tags":{"amenity":"police","building":"yes","name":"Pauma Reservation Police Department","type":"multipolygon"},"collected_at":"2026-04-23T00:25:16.240Z"},"geometry":{"type":"Point","coordinates":[-116.9878346,33.3331821]}}]}