{"type":"FeatureCollection","generated_at":"2026-04-23T05:26:20.585Z","region":"sf","bbox":[-122.55,37.4,-121.85,38],"category":"govt-embassy","feature_count":6,"features":[{"type":"Feature","properties":{"id":"osm-node-1357985356","osm_type":"node","osm_id":1357985356,"category":"govt-embassy","name":"Federal Courthouse","operator":null,"ref":null,"tags":{"amenity":"courthouse","name":"Federal Courthouse","wheelchair":"yes"}},"geometry":{"type":"Point","coordinates":[-122.2745859,37.8042639]}},{"type":"Feature","properties":{"id":"osm-node-2854365403","osm_type":"node","osm_id":2854365403,"category":"govt-embassy","name":"San Mateo County Court","operator":"San Mateo County","ref":null,"tags":{"amenity":"courthouse","name":"San Mateo County Court","operator":"San Mateo County"}},"geometry":{"type":"Point","coordinates":[-122.3284518,37.5816344]}},{"type":"Feature","properties":{"id":"osm-node-4418304722","osm_type":"node","osm_id":4418304722,"category":"govt-embassy","name":"Gale-Schenone Hall of Justice","operator":null,"ref":null,"tags":{"addr:housenumber":"5672","addr:street":"Stoneridge Drive","amenity":"courthouse","contact:phone":"+1 925 227-6700","contact:website":"http://www.alameda.courts.ca.gov/","name":"Gale-Schenone Hall of Justice"}},"geometry":{"type":"Point","coordinates":[-121.8884747,37.6902249]}},{"type":"Feature","properties":{"id":"osm-node-4422529609","osm_type":"node","osm_id":4422529609,"category":"govt-embassy","name":"George D. Carroll Courthouse","operator":null,"ref":null,"tags":{"amenity":"courthouse","name":"George D. Carroll Courthouse"}},"geometry":{"type":"Point","coordinates":[-122.3334443,37.9324877]}},{"type":"Feature","properties":{"id":"osm-node-4959226315","osm_type":"node","osm_id":4959226315,"category":"govt-embassy","name":"Juvenile Court School","operator":null,"ref":null,"tags":{"amenity":"courthouse","name":"Juvenile Court School"}},"geometry":{"type":"Point","coordinates":[-122.0881155,37.9883131]}},{"type":"Feature","properties":{"id":"osm-node-8340090911","osm_type":"node","osm_id":8340090911,"category":"govt-embassy","name":"San Mateo County Juvenile Court","operator":null,"ref":null,"tags":{"amenity":"courthouse","name":"San Mateo County Juvenile Court"}},"geometry":{"type":"Point","coordinates":[-122.3361186,37.5126585]}}]}